{
  "https://maps.googleapis.com/maps/api/place/findplacefromtext/json?location=.sg&inputtype=textquery&fields=name,place_id&input=SDE2&" : {
    "error_message" : "You must use an API key to authenticate each request to Google Maps Platform APIs. For additional information, please refer to http://g.co/dev/maps-no-account",
    "candidates" : [ ],
    "status" : "REQUEST_DENIED"
  },
  "https://maps.googleapis.com/maps/api/place/findplacefromtext/json?location=.sg&inputtype=textquery&fields=name,place_id&input=MD10&" : {
    "error_message" : "You must use an API key to authenticate each request to Google Maps Platform APIs. For additional information, please refer to http://g.co/dev/maps-no-account",
    "candidates" : [ ],
    "status" : "REQUEST_DENIED"
  },
  "https://maps.googleapis.com/maps/api/place/findplacefromtext/json?location=.sg&inputtype=textquery&fields=name,place_id&input=NUS_AS2&" : {
    "candidates" : [ {
      "name" : "NUS S17",
      "place_id" : "ChIJc9Y2SFca2jERUd33B_8nY6s"
    } ],
    "status" : "OK"
  },
  "https://maps.googleapis.com/maps/api/place/findplacefromtext/json?location=.sg&inputtype=textquery&fields=name,place_id,geometry&input=NUS_E2&" : {
    "candidates" : [ {
      "name" : "LT21",
      "geometry" : {
        "viewport" : {
          "southwest" : {
            "lng" : 103.7784904201073,
            "lat" : 1.294078520107278
          },
          "northeast" : {
            "lng" : 103.7811900798927,
            "lat" : 1.296778179892722
          }
        },
        "location" : {
          "lng" : 103.7796219,
          "lat" : 1.2953773
        }
      },
      "place_id" : "ChIJqxqtNfka2jERLnTm-1Ajycc"
    } ],
    "status" : "OK"
  },
  "https://maps.googleapis.com/maps/api/place/findplacefromtext/json?location=.sg&inputtype=textquery&fields=name,place_id&input=LT6&" : {
    "error_message" : "You must use an API key to authenticate each request to Google Maps Platform APIs. For additional information, please refer to http://g.co/dev/maps-no-account",
    "candidates" : [ ],
    "status" : "REQUEST_DENIED"
  },
  "https://maps.googleapis.com/maps/api/place/findplacefromtext/json?location=.sg&inputtype=textquery&fields=name,place_id&input=NUS_LAW_SR4&" : {
    "candidates" : [ ],
    "status" : "ZERO_RESULTS"
  },
  "https://maps.googleapis.com/maps/api/place/findplacefromtext/json?location=.sg&inputtype=textquery&fields=name,place_id&input=AKI5B&" : {
    "error_message" : "You must use an API key to authenticate each request to Google Maps Platform APIs. For additional information, please refer to http://g.co/dev/maps-no-account",
    "candidates" : [ ],
    "status" : "REQUEST_DENIED"
  },
  "https://maps.googleapis.com/maps/api/place/findplacefromtext/json?location=.sg&inputtype=textquery&fields=name,place_id,geometry&input=NUS_LT12&" : {
    "candidates" : [ {
      "name" : "NUS LT12",
      "geometry" : {
        "viewport" : {
          "southwest" : {
            "lng" : 103.7697686201073,
            "lat" : 1.293823870107278
          },
          "northeast" : {
            "lng" : 103.7724682798927,
            "lat" : 1.296523529892722
          }
        },
        "location" : {
          "lng" : 103.7711454,
          "lat" : 1.2949679
        }
      },
      "place_id" : "ChIJ_xC4S2Mb2jERtq3C7HpIrCY"
    } ],
    "status" : "OK"
  },
  "https://maps.googleapis.com/maps/api/place/findplacefromtext/json?location=.sg&inputtype=textquery&fields=name,place_id&input=NUS_LT3&" : {
    "candidates" : [ {
      "name" : "LT3",
      "place_id" : "ChIJ0c1lR_ga2jERfVFxggCR_Ic"
    } ],
    "status" : "OK"
  },
  "https://maps.googleapis.com/maps/api/place/findplacefromtext/json?location=.sg&inputtype=textquery&fields=name,place_id&input=NAK&" : {
    "error_message" : "You must use an API key to authenticate each request to Google Maps Platform APIs. For additional information, please refer to http://g.co/dev/maps-no-account",
    "candidates" : [ ],
    "status" : "REQUEST_DENIED"
  },
  "https://maps.googleapis.com/maps/api/place/findplacefromtext/json?location=.sg&inputtype=textquery&fields=name,place_id,geometry&input=NUS_FED&" : {
    "candidates" : [ ],
    "status" : "ZERO_RESULTS"
  },
  "https://maps.googleapis.com/maps/api/place/findplacefromtext/json?location=.sg&inputtype=textquery&fields=name,place_id&input=MD4&" : {
    "error_message" : "You must use an API key to authenticate each request to Google Maps Platform APIs. For additional information, please refer to http://g.co/dev/maps-no-account",
    "candidates" : [ ],
    "status" : "REQUEST_DENIED"
  },
  "https://maps.googleapis.com/maps/api/place/findplacefromtext/json?location=.sg&inputtype=textquery&fields=name,place_id&input=TH&" : {
    "error_message" : "You must use an API key to authenticate each request to Google Maps Platform APIs. For additional information, please refer to http://g.co/dev/maps-no-account",
    "candidates" : [ ],
    "status" : "REQUEST_DENIED"
  },
  "https://maps.googleapis.com/maps/api/place/findplacefromtext/json?location=.sg&inputtype=textquery&fields=name,place_id&input=NUS_LT32&" : {
    "candidates" : [ {
      "name" : "LT32 NUS",
      "place_id" : "ChIJd6fn-FYa2jER1eMe-wts2_E"
    } ],
    "status" : "OK"
  },
  "https://maps.googleapis.com/maps/api/place/findplacefromtext/json?location=.sg&inputtype=textquery&fields=name,place_id&input=AS5&" : {
    "error_message" : "You must use an API key to authenticate each request to Google Maps Platform APIs. For additional information, please refer to http://g.co/dev/maps-no-account",
    "candidates" : [ ],
    "status" : "REQUEST_DENIED"
  },
  "https://maps.googleapis.com/maps/api/place/findplacefromtext/json?location=.sg&inputtype=textquery&fields=name,place_id&input=NUS_LT20&" : {
    "candidates" : [ {
      "name" : "LT32 NUS",
      "place_id" : "ChIJd6fn-FYa2jER1eMe-wts2_E"
    } ],
    "status" : "OK"
  },
  "https://maps.googleapis.com/maps/api/place/findplacefromtext/json?location=.sg&inputtype=textquery&fields=name,place_id,geometry&input=NUS_RVR&" : {
    "candidates" : [ {
      "name" : "Ridge View Residential College",
      "geometry" : {
        "viewport" : {
          "southwest" : {
            "lng" : 103.7758925701073,
            "lat" : 1.296189170107278
          },
          "northeast" : {
            "lng" : 103.7785922298927,
            "lat" : 1.298888829892722
          }
        },
        "location" : {
          "lng" : 103.777179,
          "lat" : 1.2975803
        }
      },
      "place_id" : "ChIJlUr57Fca2jERplWDpkgW0ls"
    }, {
      "name" : "National University of Singapore",
      "geometry" : {
        "viewport" : {
          "southwest" : {
            "lng" : 103.76256585,
            "lat" : 1.2871405
          },
          "northeast" : {
            "lng" : 103.79249765,
            "lat" : 1.3062541
          }
        },
        "location" : {
          "lng" : 103.7763939,
          "lat" : 1.2966426
        }
      },
      "place_id" : "ChIJ2QJCeFYa2jERa434wdYIjUg"
    } ],
    "status" : "OK"
  },
  "https://maps.googleapis.com/maps/api/place/findplacefromtext/json?location=.sg&inputtype=textquery&fields=name,place_id&input=NUS_LAW_CR3&" : {
    "candidates" : [ ],
    "status" : "ZERO_RESULTS"
  },
  "https://maps.googleapis.com/maps/api/place/findplacefromtext/json?location=.sg&inputtype=textquery&fields=name,place_id&input=BIZ2&" : {
    "error_message" : "You must use an API key to authenticate each request to Google Maps Platform APIs. For additional information, please refer to http://g.co/dev/maps-no-account",
    "candidates" : [ ],
    "status" : "REQUEST_DENIED"
  },
  "https://maps.googleapis.com/maps/api/place/findplacefromtext/json?location=.sg&inputtype=textquery&fields=name,place_id&input=EW1&" : {
    "error_message" : "You must use an API key to authenticate each request to Google Maps Platform APIs. For additional information, please refer to http://g.co/dev/maps-no-account",
    "candidates" : [ ],
    "status" : "REQUEST_DENIED"
  },
  "https://maps.googleapis.com/maps/api/place/findplacefromtext/json?location=.sg&inputtype=textquery&fields=name,place_id&input=NUS_TC&" : {
    "candidates" : [ ],
    "status" : "ZERO_RESULTS"
  },
  "https://maps.googleapis.com/maps/api/place/findplacefromtext/json?location=.sg&inputtype=textquery&fields=name,place_id&input=NUS_E5&" : {
    "candidates" : [ {
      "name" : "National University of Singapore",
      "place_id" : "ChIJ2QJCeFYa2jERa434wdYIjUg"
    } ],
    "status" : "OK"
  },
  "https://maps.googleapis.com/maps/api/place/findplacefromtext/json?location=.sg&inputtype=textquery&fields=name,place_id&input=NUS_BIZ2&" : {
    "candidates" : [ {
      "name" : "Biz 2",
      "place_id" : "ChIJyZQi-FUa2jERnuxGL51dmnQ"
    } ],
    "status" : "OK"
  },
  "https://maps.googleapis.com/maps/api/place/findplacefromtext/json?location=.sg&inputtype=textquery&fields=name,place_id&input=AKIMAUD&" : {
    "error_message" : "You must use an API key to authenticate each request to Google Maps Platform APIs. For additional information, please refer to http://g.co/dev/maps-no-account",
    "candidates" : [ ],
    "status" : "REQUEST_DENIED"
  },
  "https://maps.googleapis.com/maps/api/place/findplacefromtext/json?location=.sg&inputtype=textquery&fields=name,place_id&input=UTSRC&" : {
    "error_message" : "You must use an API key to authenticate each request to Google Maps Platform APIs. For additional information, please refer to http://g.co/dev/maps-no-account",
    "candidates" : [ ],
    "status" : "REQUEST_DENIED"
  },
  "https://maps.googleapis.com/maps/api/place/findplacefromtext/json?location=.sg&inputtype=textquery&fields=name,place_id&input=S5&" : {
    "error_message" : "You must use an API key to authenticate each request to Google Maps Platform APIs. For additional information, please refer to http://g.co/dev/maps-no-account",
    "candidates" : [ ],
    "status" : "REQUEST_DENIED"
  },
  "https://maps.googleapis.com/maps/api/place/findplacefromtext/json?location=.sg&inputtype=textquery&fields=name,place_id,geometry&input=NUS_E2A&" : {
    "candidates" : [ {
      "name" : "National University of Singapore",
      "geometry" : {
        "viewport" : {
          "southwest" : {
            "lng" : 103.76256585,
            "lat" : 1.2871405
          },
          "northeast" : {
            "lng" : 103.79249765,
            "lat" : 1.3062541
          }
        },
        "location" : {
          "lng" : 103.7763939,
          "lat" : 1.2966426
        }
      },
      "place_id" : "ChIJ2QJCeFYa2jERa434wdYIjUg"
    } ],
    "status" : "OK"
  },
  "https://maps.googleapis.com/maps/api/place/findplacefromtext/json?location=.sg&inputtype=textquery&fields=name,place_id&input=NUS_MD1&" : {
    "candidates" : [ {
      "name" : "MD1 - Tahir Foundation Building",
      "place_id" : "ChIJcZSxxVYa2jERLKUYt9o2AgE"
    }, {
      "name" : "National University of Singapore",
      "place_id" : "ChIJ2QJCeFYa2jERa434wdYIjUg"
    } ],
    "status" : "OK"
  },
  "https://maps.googleapis.com/maps/api/place/findplacefromtext/json?location=.sg&inputtype=textquery&fields=name,place_id&input=NUS_SR&" : {
    "error_message" : "You must use an API key to authenticate each request to Google Maps Platform APIs. For additional information, please refer to http://g.co/dev/maps-no-account",
    "candidates" : [ ],
    "status" : "REQUEST_DENIED"
  },
  "https://maps.googleapis.com/maps/api/place/findplacefromtext/json?location=.sg&inputtype=textquery&fields=name,place_id,geometry&input=NUS_E3&" : {
    "candidates" : [ {
      "name" : "LT21",
      "geometry" : {
        "viewport" : {
          "southwest" : {
            "lng" : 103.7784904201073,
            "lat" : 1.294078520107278
          },
          "northeast" : {
            "lng" : 103.7811900798927,
            "lat" : 1.296778179892722
          }
        },
        "location" : {
          "lng" : 103.7796219,
          "lat" : 1.2953773
        }
      },
      "place_id" : "ChIJqxqtNfka2jERLnTm-1Ajycc"
    } ],
    "status" : "OK"
  },
  "https://maps.googleapis.com/maps/api/place/findplacefromtext/json?location=.sg&inputtype=textquery&fields=name,place_id&input=NUS_AS1&" : {
    "candidates" : [ {
      "name" : "LT32 NUS",
      "place_id" : "ChIJd6fn-FYa2jER1eMe-wts2_E"
    } ],
    "status" : "OK"
  },
  "https://maps.googleapis.com/maps/api/place/findplacefromtext/json?location=.sg&inputtype=textquery&fields=name,place_id&input=NUS_SDE2&" : {
    "candidates" : [ {
      "name" : "SDE 2",
      "place_id" : "ChIJBSFPvPka2jERljBq4CLgtmI"
    } ],
    "status" : "OK"
  },
  "https://maps.googleapis.com/maps/api/place/findplacefromtext/json?location=.sg&inputtype=textquery&fields=name,place_id&input=LT7&" : {
    "error_message" : "You must use an API key to authenticate each request to Google Maps Platform APIs. For additional information, please refer to http://g.co/dev/maps-no-account",
    "candidates" : [ ],
    "status" : "REQUEST_DENIED"
  },
  "https://maps.googleapis.com/maps/api/place/findplacefromtext/json?location=.sg&inputtype=textquery&fields=name,place_id&input=NUS_LAW_SR3&" : {
    "candidates" : [ {
      "name" : "National University of Singapore Faculty of Law",
      "place_id" : "ChIJfyddcgMa2jER6C0WKzLdP6w"
    } ],
    "status" : "OK"
  },
  "https://maps.googleapis.com/maps/api/place/findplacefromtext/json?location=.sg&inputtype=textquery&fields=name,place_id&input=NUS_LAW_LT&" : {
    "candidates" : [ {
      "name" : "National University of Singapore",
      "place_id" : "ChIJ2QJCeFYa2jERa434wdYIjUg"
    }, {
      "name" : "National University of Singapore Faculty of Law",
      "place_id" : "ChIJfyddcgMa2jER6C0WKzLdP6w"
    } ],
    "status" : "OK"
  },
  "https://maps.googleapis.com/maps/api/place/findplacefromtext/json?location=.sg&inputtype=textquery&fields=name,place_id&input=NUS_CFG_CARSPA&" : {
    "candidates" : [ ],
    "status" : "ZERO_RESULTS"
  },
  "https://maps.googleapis.com/maps/api/place/findplacefromtext/json?location=.sg&inputtype=textquery&fields=name,place_id,geometry&input=NUS_LT11&" : {
    "candidates" : [ {
      "name" : "National University of Singapore",
      "geometry" : {
        "viewport" : {
          "southwest" : {
            "lng" : 103.76256585,
            "lat" : 1.2871405
          },
          "northeast" : {
            "lng" : 103.79249765,
            "lat" : 1.3062541
          }
        },
        "location" : {
          "lng" : 103.7763939,
          "lat" : 1.2966426
        }
      },
      "place_id" : "ChIJ2QJCeFYa2jERa434wdYIjUg"
    }, {
      "name" : "NUS AS7 Shaw Foundation Building",
      "geometry" : {
        "viewport" : {
          "southwest" : {
            "lng" : 103.7696042701073,
            "lat" : 1.292858970107278
          },
          "northeast" : {
            "lng" : 103.7723039298927,
            "lat" : 1.295558629892722
          }
        },
        "location" : {
          "lng" : 103.7710034,
          "lat" : 1.2942381
        }
      },
      "place_id" : "ChIJ8Yh3Nvka2jERWw7qp5RkdZE"
    } ],
    "status" : "OK"
  },
  "https://maps.googleapis.com/maps/api/place/findplacefromtext/json?location=.sg&inputtype=textquery&fields=name,place_id&input=NUS_LT2&" : {
    "candidates" : [ {
      "name" : "University Cultural Centre",
      "place_id" : "ChIJL0AO-vYa2jERp0wPb8ydsdc"
    } ],
    "status" : "OK"
  },
  "https://maps.googleapis.com/maps/api/place/findplacefromtext/json?location=.sg&inputtype=textquery&fields=name,place_id&input=NUS_LAW_CR2&" : {
    "candidates" : [ ],
    "status" : "ZERO_RESULTS"
  },
  "https://maps.googleapis.com/maps/api/place/findplacefromtext/json?location=.sg&inputtype=textquery&fields=name,place_id&input=NUS_LT33&" : {
    "candidates" : [ {
      "name" : "LT 33",
      "place_id" : "ChIJRaLWSlca2jERRLrHUa9NSqo"
    } ],
    "status" : "OK"
  },
  "https://maps.googleapis.com/maps/api/place/findplacefromtext/json?location=.sg&inputtype=textquery&fields=name,place_id&input=EW2&" : {
    "error_message" : "You must use an API key to authenticate each request to Google Maps Platform APIs. For additional information, please refer to http://g.co/dev/maps-no-account",
    "candidates" : [ ],
    "status" : "REQUEST_DENIED"
  },
  "https://maps.googleapis.com/maps/api/place/findplacefromtext/json?location=.sg&inputtype=textquery&fields=name,place_id,geometry&input=NUS_PGPH&" : {
    "candidates" : [ {
      "name" : "bluPort - NUS Prince George's Park",
      "geometry" : {
        "viewport" : {
          "southwest" : {
            "lng" : 103.7794615201073,
            "lat" : 1.289584720107278
          },
          "northeast" : {
            "lng" : 103.7821611798927,
            "lat" : 1.292284379892722
          }
        },
        "location" : {
          "lng" : 103.78079,
          "lat" : 1.290875
        }
      },
      "place_id" : "ChIJUeQOY1Ma2jER4WwNPbrS4mk"
    } ],
    "status" : "OK"
  },
  "https://maps.googleapis.com/maps/api/place/findplacefromtext/json?location=.sg&inputtype=textquery&fields=name,place_id&input=NUS_LT21&" : {
    "candidates" : [ {
      "name" : "LT21",
      "place_id" : "ChIJqxqtNfka2jERLnTm-1Ajycc"
    } ],
    "status" : "OK"
  },
  "https://maps.googleapis.com/maps/api/place/findplacefromtext/json?location=.sg&inputtype=textquery&fields=name,place_id&input=NUS_UTSRC&" : {
    "candidates" : [ {
      "name" : "University Town, NUS",
      "place_id" : "ChIJF__3dfUa2jERyEFGvbTUVhA"
    } ],
    "status" : "OK"
  },
  "https://maps.googleapis.com/maps/api/place/findplacefromtext/json?location=.sg&inputtype=textquery&fields=name,place_id&input=AS6&" : {
    "error_message" : "You must use an API key to authenticate each request to Google Maps Platform APIs. For additional information, please refer to http://g.co/dev/maps-no-account",
    "candidates" : [ ],
    "status" : "REQUEST_DENIED"
  },
  "https://maps.googleapis.com/maps/api/place/findplacefromtext/json?location=.sg&inputtype=textquery&fields=name,place_id&input=BIZ1&" : {
    "error_message" : "You must use an API key to authenticate each request to Google Maps Platform APIs. For additional information, please refer to http://g.co/dev/maps-no-account",
    "candidates" : [ ],
    "status" : "REQUEST_DENIED"
  },
  "https://maps.googleapis.com/maps/api/place/findplacefromtext/json?location=.sg&inputtype=textquery&fields=name,place_id&input=CFG&" : {
    "error_message" : "You must use an API key to authenticate each request to Google Maps Platform APIs. For additional information, please refer to http://g.co/dev/maps-no-account",
    "candidates" : [ ],
    "status" : "REQUEST_DENIED"
  },
  "https://maps.googleapis.com/maps/api/place/findplacefromtext/json?location=.sg&inputtype=textquery&fields=name,place_id,geometry&input=NUS_UT&" : {
    "candidates" : [ {
      "name" : "University Town, NUS",
      "geometry" : {
        "viewport" : {
          "southwest" : {
            "lng" : 103.7714854701073,
            "lat" : 1.304208820107278
          },
          "northeast" : {
            "lng" : 103.7741851298927,
            "lat" : 1.306908479892722
          }
        },
        "location" : {
          "lng" : 103.7730596,
          "lat" : 1.3054859
        }
      },
      "place_id" : "ChIJF__3dfUa2jERyEFGvbTUVhA"
    } ],
    "status" : "OK"
  },
  "https://maps.googleapis.com/maps/api/place/findplacefromtext/json?location=.sg&inputtype=textquery&fields=name,place_id&input=NUS_BIZ1&" : {
    "candidates" : [ {
      "name" : "Biz 2",
      "place_id" : "ChIJyZQi-FUa2jERnuxGL51dmnQ"
    } ],
    "status" : "OK"
  },
  "https://maps.googleapis.com/maps/api/place/findplacefromtext/json?location=.sg&inputtype=textquery&fields=name,place_id&input=RC4&" : {
    "error_message" : "You must use an API key to authenticate each request to Google Maps Platform APIs. For additional information, please refer to http://g.co/dev/maps-no-account",
    "candidates" : [ ],
    "status" : "REQUEST_DENIED"
  },
  "https://maps.googleapis.com/maps/api/place/findplacefromtext/json?location=.sg&inputtype=textquery&fields=name,place_id,geometry&input=NUS_S16&" : {
    "candidates" : [ {
      "name" : "S16",
      "geometry" : {
        "viewport" : {
          "southwest" : {
            "lng" : 103.7788318701073,
            "lat" : 1.295404220107278
          },
          "northeast" : {
            "lng" : 103.7815315298927,
            "lat" : 1.298103879892722
          }
        },
        "location" : {
          "lng" : 103.7802672,
          "lat" : 1.2967963
        }
      },
      "place_id" : "ChIJj0nvJVca2jERG8I4Ivxwp14"
    } ],
    "status" : "OK"
  },
  "https://maps.googleapis.com/maps/api/place/findplacefromtext/json?location=.sg&inputtype=textquery&fields=name,place_id&input=S4&" : {
    "error_message" : "You must use an API key to authenticate each request to Google Maps Platform APIs. For additional information, please refer to http://g.co/dev/maps-no-account",
    "candidates" : [ ],
    "status" : "REQUEST_DENIED"
  },
  "https://maps.googleapis.com/maps/api/place/findplacefromtext/json?location=.sg&inputtype=textquery&fields=name,place_id&input=S7&" : {
    "error_message" : "You must use an API key to authenticate each request to Google Maps Platform APIs. For additional information, please refer to http://g.co/dev/maps-no-account",
    "candidates" : [ ],
    "status" : "REQUEST_DENIED"
  },
  "https://maps.googleapis.com/maps/api/place/findplacefromtext/json?location=.sg&inputtype=textquery&fields=name,place_id&input=LT4&" : {
    "error_message" : "You must use an API key to authenticate each request to Google Maps Platform APIs. For additional information, please refer to http://g.co/dev/maps-no-account",
    "candidates" : [ ],
    "status" : "REQUEST_DENIED"
  },
  "https://maps.googleapis.com/maps/api/place/findplacefromtext/json?location=.sg&inputtype=textquery&fields=name,place_id,geometry&input=NUS_ENG&" : {
    "candidates" : [ {
      "name" : "NUS Faculty of Engineering",
      "geometry" : {
        "viewport" : {
          "southwest" : {
            "lng" : 103.7691897701073,
            "lat" : 1.2985076
          },
          "northeast" : {
            "lng" : 103.7718894298927,
            "lat" : 1.301448
          }
        },
        "location" : {
          "lng" : 103.770791,
          "lat" : 1.300259
        }
      },
      "place_id" : "ChIJQ91DPvca2jERARhJO1i77Cg"
    } ],
    "status" : "OK"
  },
  "https://maps.googleapis.com/maps/api/place/findplacefromtext/json?location=.sg&inputtype=textquery&fields=name,place_id&input=I3&" : {
    "error_message" : "You must use an API key to authenticate each request to Google Maps Platform APIs. For additional information, please refer to http://g.co/dev/maps-no-account",
    "candidates" : [ ],
    "status" : "REQUEST_DENIED"
  },
  "https://maps.googleapis.com/maps/api/place/findplacefromtext/json?location=.sg&inputtype=textquery&fields=name,place_id,geometry&input=NUS_LT26&" : {
    "candidates" : [ {
      "name" : "LT21",
      "geometry" : {
        "viewport" : {
          "southwest" : {
            "lng" : 103.7784904201073,
            "lat" : 1.294078520107278
          },
          "northeast" : {
            "lng" : 103.7811900798927,
            "lat" : 1.296778179892722
          }
        },
        "location" : {
          "lng" : 103.7796219,
          "lat" : 1.2953773
        }
      },
      "place_id" : "ChIJqxqtNfka2jERLnTm-1Ajycc"
    } ],
    "status" : "OK"
  },
  "https://maps.googleapis.com/maps/api/place/findplacefromtext/json?location=.sg&inputtype=textquery&fields=name,place_id&input=SDE4&" : {
    "error_message" : "You must use an API key to authenticate each request to Google Maps Platform APIs. For additional information, please refer to http://g.co/dev/maps-no-account",
    "candidates" : [ ],
    "status" : "REQUEST_DENIED"
  },
  "https://maps.googleapis.com/maps/api/place/findplacefromtext/json?location=.sg&inputtype=textquery&fields=name,place_id,geometry&input=NUS_LT14&" : {
    "candidates" : [ {
      "name" : "NUS LT14",
      "geometry" : {
        "viewport" : {
          "southwest" : {
            "lng" : 103.7719788201073,
            "lat" : 1.294009220107278
          },
          "northeast" : {
            "lng" : 103.7746784798927,
            "lat" : 1.296708879892722
          }
        },
        "location" : {
          "lng" : 103.7733803,
          "lat" : 1.2957153
        }
      },
      "place_id" : "ChIJBRIdw1Yb2jER_w4k6qhkwAk"
    } ],
    "status" : "OK"
  },
  "https://maps.googleapis.com/maps/api/place/findplacefromtext/json?location=.sg&inputtype=textquery&fields=name,place_id&input=NUS_LT1&" : {
    "candidates" : [ {
      "name" : "LT1, NUS",
      "place_id" : "ChIJ0fcnb_ca2jER_YoyP7CAb7E"
    } ],
    "status" : "OK"
  },
  "https://maps.googleapis.com/maps/api/place/findplacefromtext/json?location=.sg&inputtype=textquery&fields=name,place_id&input=NUS_AKIMAUD&" : {
    "candidates" : [ ],
    "status" : "ZERO_RESULTS"
  },
  "https://maps.googleapis.com/maps/api/place/findplacefromtext/json?location=.sg&inputtype=textquery&fields=name,place_id&input=SH&" : {
    "error_message" : "You must use an API key to authenticate each request to Google Maps Platform APIs. For additional information, please refer to http://g.co/dev/maps-no-account",
    "candidates" : [ ],
    "status" : "REQUEST_DENIED"
  },
  "https://maps.googleapis.com/maps/api/place/findplacefromtext/json?location=.sg&inputtype=textquery&fields=name,place_id&input=NUS_LAW_ESR&" : {
    "candidates" : [ ],
    "status" : "ZERO_RESULTS"
  },
  "https://maps.googleapis.com/maps/api/place/findplacefromtext/json?location=.sg&inputtype=textquery&fields=name,place_id&input=LT32&" : {
    "error_message" : "You must use an API key to authenticate each request to Google Maps Platform APIs. For additional information, please refer to http://g.co/dev/maps-no-account",
    "candidates" : [ ],
    "status" : "REQUEST_DENIED"
  },
  "https://maps.googleapis.com/maps/api/place/findplacefromtext/json?location=.sg&inputtype=textquery&fields=name,place_id&input=NUS_LAW_CR5&" : {
    "candidates" : [ ],
    "status" : "ZERO_RESULTS"
  },
  "https://maps.googleapis.com/maps/api/place/findplacefromtext/json?location=.sg&inputtype=textquery&fields=name,place_id&input=LT20&" : {
    "error_message" : "You must use an API key to authenticate each request to Google Maps Platform APIs. For additional information, please refer to http://g.co/dev/maps-no-account",
    "candidates" : [ ],
    "status" : "REQUEST_DENIED"
  },
  "https://maps.googleapis.com/maps/api/place/findplacefromtext/json?location=.sg&inputtype=textquery&fields=name,place_id,geometry&input=NUS_EA&" : {
    "candidates" : [ {
      "name" : "LT21",
      "geometry" : {
        "viewport" : {
          "southwest" : {
            "lng" : 103.7784904201073,
            "lat" : 1.294078520107278
          },
          "northeast" : {
            "lng" : 103.7811900798927,
            "lat" : 1.296778179892722
          }
        },
        "location" : {
          "lng" : 103.7796219,
          "lat" : 1.2953773
        }
      },
      "place_id" : "ChIJqxqtNfka2jERLnTm-1Ajycc"
    } ],
    "status" : "OK"
  },
  "https://maps.googleapis.com/maps/api/place/findplacefromtext/json?location=.sg&inputtype=textquery&fields=name,place_id&input=NUS_E3&" : {
    "candidates" : [ {
      "name" : "National University of Singapore",
      "place_id" : "ChIJ2QJCeFYa2jERa434wdYIjUg"
    } ],
    "status" : "OK"
  },
  "https://maps.googleapis.com/maps/api/place/findplacefromtext/json?location=.sg&inputtype=textquery&fields=name,place_id&input=NUS_SR_LT19&" : {
    "candidates" : [ {
      "name" : "COM 2",
      "place_id" : "ChIJRafctPga2jER8aiJ3XzHihM"
    } ],
    "status" : "OK"
  },
  "https://maps.googleapis.com/maps/api/place/findplacefromtext/json?location=.sg&inputtype=textquery&fields=name,place_id,geometry&input=NUS_S13&" : {
    "candidates" : [ {
      "name" : "S13",
      "geometry" : {
        "viewport" : {
          "southwest" : {
            "lng" : 103.7778622701073,
            "lat" : 1.295299470107278
          },
          "northeast" : {
            "lng" : 103.7805619298927,
            "lat" : 1.297999129892722
          }
        },
        "location" : {
          "lng" : 103.7792265,
          "lat" : 1.2967105
        }
      },
      "place_id" : "ChIJ_wwcHFca2jERxmBfSKZcDBE"
    } ],
    "status" : "OK"
  },
  "https://maps.googleapis.com/maps/api/place/findplacefromtext/json?location=.sg&inputtype=textquery&fields=name,place_id&input=NUS_ERC&" : {
    "candidates" : [ {
      "name" : "University Town, NUS",
      "place_id" : "ChIJF__3dfUa2jERyEFGvbTUVhA"
    } ],
    "status" : "OK"
  },
  "https://maps.googleapis.com/maps/api/place/findplacefromtext/json?location=.sg&inputtype=textquery&fields=name,place_id,geometry&input=NUS_COM1&" : {
    "candidates" : [ {
      "name" : "NUS School of Computing",
      "geometry" : {
        "viewport" : {
          "southwest" : {
            "lng" : 103.7725357701073,
            "lat" : 1.293737170107278
          },
          "northeast" : {
            "lng" : 103.7752354298927,
            "lat" : 1.296436829892722
          }
        },
        "location" : {
          "lng" : 103.7738856,
          "lat" : 1.295087
        }
      },
      "place_id" : "ChIJW-fkx_ga2jERSjkkKeJjaUM"
    } ],
    "status" : "OK"
  },
  "https://maps.googleapis.com/maps/api/place/findplacefromtext/json?location=.sg&inputtype=textquery&fields=name,place_id&input=AS3&" : {
    "error_message" : "You must use an API key to authenticate each request to Google Maps Platform APIs. For additional information, please refer to http://g.co/dev/maps-no-account",
    "candidates" : [ ],
    "status" : "REQUEST_DENIED"
  },
  "https://maps.googleapis.com/maps/api/place/findplacefromtext/json?location=.sg&inputtype=textquery&fields=name,place_id,geometry&input=NUS_E3A&" : {
    "candidates" : [ {
      "name" : "Solar Energy Research Institute of Singapore (SERIS)",
      "geometry" : {
        "viewport" : {
          "southwest" : {
            "lng" : 103.7700949701073,
            "lat" : 1.299092620107278
          },
          "northeast" : {
            "lng" : 103.7727946298927,
            "lat" : 1.301792279892722
          }
        },
        "location" : {
          "lng" : 103.771414,
          "lat" : 1.300358
        }
      },
      "place_id" : "ChIJRSenE_ca2jERqvkfsltzIpM"
    }, {
      "name" : "National University of Singapore",
      "geometry" : {
        "viewport" : {
          "southwest" : {
            "lng" : 103.76256585,
            "lat" : 1.2871405
          },
          "northeast" : {
            "lng" : 103.79249765,
            "lat" : 1.3062541
          }
        },
        "location" : {
          "lng" : 103.7763939,
          "lat" : 1.2966426
        }
      },
      "place_id" : "ChIJ2QJCeFYa2jERa434wdYIjUg"
    } ],
    "status" : "OK"
  },
  "https://maps.googleapis.com/maps/api/place/findplacefromtext/json?location=.sg&inputtype=textquery&fields=name,place_id&input=NUS_S17&" : {
    "candidates" : [ {
      "name" : "NUS S17",
      "place_id" : "ChIJc9Y2SFca2jERUd33B_8nY6s"
    } ],
    "status" : "OK"
  },
  "https://maps.googleapis.com/maps/api/place/findplacefromtext/json?location=.sg&inputtype=textquery&fields=name,place_id,geometry&input=NUS_CQT&" : {
    "candidates" : [ {
      "name" : "Centre for Quantum Technologies",
      "geometry" : {
        "viewport" : {
          "southwest" : {
            "lng" : 103.7789358701073,
            "lat" : 1.295923970107278
          },
          "northeast" : {
            "lng" : 103.7816355298927,
            "lat" : 1.298623629892722
          }
        },
        "location" : {
          "lng" : 103.78031,
          "lat" : 1.297155
        }
      },
      "place_id" : "ChIJMWRAJlca2jERWL96yXLSPpg"
    } ],
    "status" : "OK"
  },
  "https://maps.googleapis.com/maps/api/place/findplacefromtext/json?location=.sg&inputtype=textquery&fields=name,place_id,geometry&input=NUS_YI&" : {
    "candidates" : [ ],
    "status" : "ZERO_RESULTS"
  },
  "https://maps.googleapis.com/maps/api/place/findplacefromtext/json?location=.sg&inputtype=textquery&fields=name,place_id&input=NUS_UT&" : {
    "candidates" : [ {
      "name" : "UTown Residence",
      "place_id" : "ChIJzcIrlvUa2jERyTCHvW8zI0I"
    } ],
    "status" : "OK"
  },
  "https://maps.googleapis.com/maps/api/place/findplacefromtext/json?location=.sg&inputtype=textquery&fields=name,place_id&input=NUS_SDE4&" : {
    "candidates" : [ {
      "name" : "NUS School of Design & Environment",
      "place_id" : "ChIJrY4IlPka2jERhqeUbnzFVKY"
    }, {
      "name" : "National University of Singapore",
      "place_id" : "ChIJ2QJCeFYa2jERa434wdYIjUg"
    } ],
    "status" : "OK"
  },
  "https://maps.googleapis.com/maps/api/place/findplacefromtext/json?location=.sg&inputtype=textquery&fields=name,place_id&input=NUS_MD10&" : {
    "candidates" : [ {
      "name" : "National University of Singapore",
      "place_id" : "ChIJ2QJCeFYa2jERa434wdYIjUg"
    }, {
      "name" : "Department of Anatomy, NUS",
      "place_id" : "ChIJk4kk2FAa2jER_zcE_-Zi1U8"
    } ],
    "status" : "OK"
  },
  "https://maps.googleapis.com/maps/api/place/findplacefromtext/json?location=.sg&inputtype=textquery&fields=name,place_id,geometry&input=NUS_E1&" : {
    "candidates" : [ {
      "name" : "LT21",
      "geometry" : {
        "viewport" : {
          "southwest" : {
            "lng" : 103.7784904201073,
            "lat" : 1.294078520107278
          },
          "northeast" : {
            "lng" : 103.7811900798927,
            "lat" : 1.296778179892722
          }
        },
        "location" : {
          "lng" : 103.7796219,
          "lat" : 1.2953773
        }
      },
      "place_id" : "ChIJqxqtNfka2jERLnTm-1Ajycc"
    } ],
    "status" : "OK"
  },
  "https://maps.googleapis.com/maps/api/place/findplacefromtext/json?location=.sg&inputtype=textquery&fields=name,place_id,geometry&input=NUS_LT13&" : {
    "candidates" : [ {
      "name" : "NUS LT13",
      "geometry" : {
        "viewport" : {
          "southwest" : {
            "lng" : 103.7694674701073,
            "lat" : 1.293675070107278
          },
          "northeast" : {
            "lng" : 103.7721671298927,
            "lat" : 1.296374729892722
          }
        },
        "location" : {
          "lng" : 103.7709157,
          "lat" : 1.295104
        }
      },
      "place_id" : "ChIJoViMIbYb2jERQbzhdcWZAc4"
    } ],
    "status" : "OK"
  },
  "https://maps.googleapis.com/maps/api/place/findplacefromtext/json?location=.sg&inputtype=textquery&fields=name,place_id,geometry&input=NUS_SDE4&" : {
    "candidates" : [ {
      "name" : "NUS School of Design & Environment",
      "geometry" : {
        "viewport" : {
          "southwest" : {
            "lng" : 103.7689751201073,
            "lat" : 1.296098870107278
          },
          "northeast" : {
            "lng" : 103.7716747798927,
            "lat" : 1.298798529892722
          }
        },
        "location" : {
          "lng" : 103.7704826,
          "lat" : 1.2974774
        }
      },
      "place_id" : "ChIJrY4IlPka2jERhqeUbnzFVKY"
    }, {
      "name" : "National University of Singapore",
      "geometry" : {
        "viewport" : {
          "southwest" : {
            "lng" : 103.76256585,
            "lat" : 1.2871405
          },
          "northeast" : {
            "lng" : 103.79249765,
            "lat" : 1.3062541
          }
        },
        "location" : {
          "lng" : 103.7763939,
          "lat" : 1.2966426
        }
      },
      "place_id" : "ChIJ2QJCeFYa2jERa434wdYIjUg"
    } ],
    "status" : "OK"
  },
  "https://maps.googleapis.com/maps/api/place/findplacefromtext/json?location=.sg&inputtype=textquery&fields=name,place_id&input=NUS_LAW_SR5&" : {
    "candidates" : [ ],
    "status" : "ZERO_RESULTS"
  },
  "https://maps.googleapis.com/maps/api/place/findplacefromtext/json?location=.sg&inputtype=textquery&fields=name,place_id&input=AS4&" : {
    "error_message" : "You must use an API key to authenticate each request to Google Maps Platform APIs. For additional information, please refer to http://g.co/dev/maps-no-account",
    "candidates" : [ ],
    "status" : "REQUEST_DENIED"
  },
  "https://maps.googleapis.com/maps/api/place/findplacefromtext/json?location=.sg&inputtype=textquery&fields=name,place_id&input=NUS_LAW_CR4&" : {
    "candidates" : [ ],
    "status" : "ZERO_RESULTS"
  },
  "https://maps.googleapis.com/maps/api/place/findplacefromtext/json?location=.sg&inputtype=textquery&fields=name,place_id&input=NUS_LT31&" : {
    "candidates" : [ {
      "name" : "LT31",
      "place_id" : "ChIJ0xoOL1ca2jERs3Li2JZozaY"
    } ],
    "status" : "OK"
  },
  "https://maps.googleapis.com/maps/api/place/findplacefromtext/json?location=.sg&inputtype=textquery&fields=name,place_id&input=NUS_E4&" : {
    "candidates" : [ {
      "name" : "NUS Engineering E4",
      "place_id" : "ChIJHb9MLPga2jERkr_999Yy7m4"
    } ],
    "status" : "OK"
  },
  "https://maps.googleapis.com/maps/api/place/findplacefromtext/json?location=.sg&inputtype=textquery&fields=name,place_id&input=LT31&" : {
    "error_message" : "You must use an API key to authenticate each request to Google Maps Platform APIs. For additional information, please refer to http://g.co/dev/maps-no-account",
    "candidates" : [ ],
    "status" : "REQUEST_DENIED"
  },
  "https://maps.googleapis.com/maps/api/place/findplacefromtext/json?location=.sg&inputtype=textquery&fields=name,place_id&input=NUS_TB&" : {
    "candidates" : [ ],
    "status" : "ZERO_RESULTS"
  },
  "https://maps.googleapis.com/maps/api/place/findplacefromtext/json?location=.sg&inputtype=textquery&fields=name,place_id,geometry&input=NUS_TP&" : {
    "candidates" : [ {
      "name" : "Town Plaza",
      "geometry" : {
        "viewport" : {
          "southwest" : {
            "lng" : 103.7710109201073,
            "lat" : 1.303119970107278
          },
          "northeast" : {
            "lng" : 103.7737105798927,
            "lat" : 1.305819629892722
          }
        },
        "location" : {
          "lng" : 103.7724828,
          "lat" : 1.3046931
        }
      },
      "place_id" : "ChIJf0Ylw_Ua2jERfrSRsF04uf8"
    } ],
    "status" : "OK"
  },
  "https://maps.googleapis.com/maps/api/place/findplacefromtext/json?location=.sg&inputtype=textquery&fields=name,place_id,geometry&input=NUS_S14&" : {
    "candidates" : [ {
      "name" : "S14",
      "geometry" : {
        "viewport" : {
          "southwest" : {
            "lng" : 103.7785434701073,
            "lat" : 1.295477270107278
          },
          "northeast" : {
            "lng" : 103.7812431298927,
            "lat" : 1.298176929892722
          }
        },
        "location" : {
          "lng" : 103.7797737,
          "lat" : 1.2967695
        }
      },
      "place_id" : "ChIJk7crIlca2jERv-HAgOh1LEE"
    } ],
    "status" : "OK"
  },
  "https://maps.googleapis.com/maps/api/place/findplacefromtext/json?location=.sg&inputtype=textquery&fields=name,place_id&input=NUS_E1A&" : {
    "candidates" : [ {
      "name" : "Nus Blk E1a #07-16 Singapore",
      "place_id" : "ChIJdX9qxCYb2jERMo9YISDNBpY"
    } ],
    "status" : "OK"
  },
  "https://maps.googleapis.com/maps/api/place/findplacefromtext/json?location=.sg&inputtype=textquery&fields=name,place_id,geometry&input=NUS_COM2&" : {
    "candidates" : [ {
      "name" : "COM 2",
      "geometry" : {
        "viewport" : {
          "southwest" : {
            "lng" : 103.7726273201073,
            "lat" : 1.293009420107278
          },
          "northeast" : {
            "lng" : 103.7753269798927,
            "lat" : 1.295709079892722
          }
        },
        "location" : {
          "lng" : 103.7741012,
          "lat" : 1.2942824
        }
      },
      "place_id" : "ChIJRafctPga2jER8aiJ3XzHihM"
    }, {
      "name" : "National University of Singapore",
      "geometry" : {
        "viewport" : {
          "southwest" : {
            "lng" : 103.76256585,
            "lat" : 1.2871405
          },
          "northeast" : {
            "lng" : 103.79249765,
            "lat" : 1.3062541
          }
        },
        "location" : {
          "lng" : 103.7763939,
          "lat" : 1.2966426
        }
      },
      "place_id" : "ChIJ2QJCeFYa2jERa434wdYIjUg"
    } ],
    "status" : "OK"
  },
  "https://maps.googleapis.com/maps/api/place/findplacefromtext/json?location=.sg&inputtype=textquery&fields=name,place_id&input=S6&" : {
    "error_message" : "You must use an API key to authenticate each request to Google Maps Platform APIs. For additional information, please refer to http://g.co/dev/maps-no-account",
    "candidates" : [ ],
    "status" : "REQUEST_DENIED"
  },
  "https://maps.googleapis.com/maps/api/place/findplacefromtext/json?location=.sg&inputtype=textquery&fields=name,place_id&input=NUS_AS6&" : {
    "candidates" : [ {
      "name" : "NUS AS6",
      "place_id" : "ChIJAYP_DPkb2jERk5ZwcTDkwG0"
    } ],
    "status" : "OK"
  },
  "https://maps.googleapis.com/maps/api/place/findplacefromtext/json?location=.sg&inputtype=textquery&fields=name,place_id&input=NUS_CFG&" : {
    "candidates" : [ {
      "name" : "Yusof Ishak House",
      "place_id" : "ChIJcWXf-_ca2jERnQ81RhxHf5o"
    }, {
      "name" : "Multipurpose Sports Hall 1",
      "place_id" : "ChIJqw8l7lYa2jERGbuoQJFJByY"
    } ],
    "status" : "OK"
  },
  "https://maps.googleapis.com/maps/api/place/findplacefromtext/json?location=.sg&inputtype=textquery&fields=name,place_id&input=UT22&" : {
    "error_message" : "You must use an API key to authenticate each request to Google Maps Platform APIs. For additional information, please refer to http://g.co/dev/maps-no-account",
    "candidates" : [ ],
    "status" : "REQUEST_DENIED"
  },
  "https://maps.googleapis.com/maps/api/place/findplacefromtext/json?location=.sg&inputtype=textquery&fields=name,place_id,geometry&input=NUS_LT28&" : {
    "candidates" : [ {
      "name" : "NUS LT28",
      "geometry" : {
        "viewport" : {
          "southwest" : {
            "lng" : 103.7799771201073,
            "lat" : 1.295821670107278
          },
          "northeast" : {
            "lng" : 103.7826767798927,
            "lat" : 1.298521329892722
          }
        },
        "location" : {
          "lng" : 103.781209,
          "lat" : 1.2972123
        }
      },
      "place_id" : "ChIJN16IDygb2jEROR8LWE4pRss"
    } ],
    "status" : "OK"
  },
  "https://maps.googleapis.com/maps/api/place/findplacefromtext/json?location=.sg&inputtype=textquery&fields=name,place_id,geometry&input=NUS_LT16&" : {
    "candidates" : [ {
      "name" : "NUS LT16",
      "geometry" : {
        "viewport" : {
          "southwest" : {
            "lng" : 103.7724238201073,
            "lat" : 1.292451820107278
          },
          "northeast" : {
            "lng" : 103.7751234798927,
            "lat" : 1.295151479892722
          }
        },
        "location" : {
          "lng" : 103.7738458,
          "lat" : 1.2939265
        }
      },
      "place_id" : "ChIJ_6V-wnYb2jERnyniSN0LAV0"
    } ],
    "status" : "OK"
  },
  "https://maps.googleapis.com/maps/api/place/findplacefromtext/json?location=.sg&inputtype=textquery&fields=name,place_id&input=NUS_EW2&" : {
    "candidates" : [ {
      "name" : "NUS Engineering Workshop EW2/WS2",
      "place_id" : "ChIJaVUqgvca2jERlWU6Yn95-Po"
    } ],
    "status" : "OK"
  },
  "https://maps.googleapis.com/maps/api/place/findplacefromtext/json?location=.sg&inputtype=textquery&fields=name,place_id&input=CELC&" : {
    "error_message" : "You must use an API key to authenticate each request to Google Maps Platform APIs. For additional information, please refer to http://g.co/dev/maps-no-account",
    "candidates" : [ ],
    "status" : "REQUEST_DENIED"
  },
  "https://maps.googleapis.com/maps/api/place/findplacefromtext/json?location=.sg&inputtype=textquery&fields=name,place_id&input=NHM&" : {
    "error_message" : "You must use an API key to authenticate each request to Google Maps Platform APIs. For additional information, please refer to http://g.co/dev/maps-no-account",
    "candidates" : [ ],
    "status" : "REQUEST_DENIED"
  },
  "https://maps.googleapis.com/maps/api/place/findplacefromtext/json?location=.sg&inputtype=textquery&fields=name,place_id&input=TC&" : {
    "error_message" : "You must use an API key to authenticate each request to Google Maps Platform APIs. For additional information, please refer to http://g.co/dev/maps-no-account",
    "candidates" : [ ],
    "status" : "REQUEST_DENIED"
  },
  "https://maps.googleapis.com/maps/api/place/findplacefromtext/json?location=.sg&inputtype=textquery&fields=name,place_id&input=NUS_CHPC&" : {
    "candidates" : [ {
      "name" : "Clinical and Health Psychology Clinic (CHPC)",
      "place_id" : "ChIJU1YXHFga2jERe-ShZMD78oU"
    }, {
      "name" : "National University of Singapore",
      "place_id" : "ChIJ2QJCeFYa2jERa434wdYIjUg"
    } ],
    "status" : "OK"
  },
  "https://maps.googleapis.com/maps/api/place/findplacefromtext/json?location=.sg&inputtype=textquery&fields=name,place_id&input=E5&" : {
    "error_message" : "You must use an API key to authenticate each request to Google Maps Platform APIs. For additional information, please refer to http://g.co/dev/maps-no-account",
    "candidates" : [ ],
    "status" : "REQUEST_DENIED"
  },
  "https://maps.googleapis.com/maps/api/place/findplacefromtext/json?location=.sg&inputtype=textquery&fields=name,place_id,geometry&input=NUS_AS2&" : {
    "candidates" : [ {
      "name" : "LT21",
      "geometry" : {
        "viewport" : {
          "southwest" : {
            "lng" : 103.7784904201073,
            "lat" : 1.294078520107278
          },
          "northeast" : {
            "lng" : 103.7811900798927,
            "lat" : 1.296778179892722
          }
        },
        "location" : {
          "lng" : 103.7796219,
          "lat" : 1.2953773
        }
      },
      "place_id" : "ChIJqxqtNfka2jERLnTm-1Ajycc"
    } ],
    "status" : "OK"
  },
  "https://maps.googleapis.com/maps/api/place/findplacefromtext/json?location=.sg&inputtype=textquery&fields=name,place_id&input=NUS_RMI&" : {
    "candidates" : [ {
      "name" : "NUS Risk Management Institute",
      "place_id" : "ChIJj1ELpRob2jER1JEcgA1ezhg"
    }, {
      "name" : "National University of Singapore",
      "place_id" : "ChIJ2QJCeFYa2jERa434wdYIjUg"
    } ],
    "status" : "OK"
  },
  "https://maps.googleapis.com/maps/api/place/findplacefromtext/json?location=.sg&inputtype=textquery&fields=name,place_id&input=NUS_LT8&" : {
    "candidates" : [ {
      "name" : "National University of Singapore",
      "place_id" : "ChIJ2QJCeFYa2jERa434wdYIjUg"
    } ],
    "status" : "OK"
  },
  "https://maps.googleapis.com/maps/api/place/findplacefromtext/json?location=.sg&inputtype=textquery&fields=name,place_id&input=LT34&" : {
    "error_message" : "You must use an API key to authenticate each request to Google Maps Platform APIs. For additional information, please refer to http://g.co/dev/maps-no-account",
    "candidates" : [ ],
    "status" : "REQUEST_DENIED"
  },
  "https://maps.googleapis.com/maps/api/place/findplacefromtext/json?location=.sg&inputtype=textquery&fields=name,place_id&input=LT10&" : {
    "error_message" : "You must use an API key to authenticate each request to Google Maps Platform APIs. For additional information, please refer to http://g.co/dev/maps-no-account",
    "candidates" : [ ],
    "status" : "REQUEST_DENIED"
  },
  "https://maps.googleapis.com/maps/api/place/findplacefromtext/json?location=.sg&inputtype=textquery&fields=name,place_id,geometry&input=NUS_LT3&" : {
    "candidates" : [ {
      "name" : "LT3",
      "geometry" : {
        "viewport" : {
          "southwest" : {
            "lng" : 103.7719203701073,
            "lat" : 1.296468870107278
          },
          "northeast" : {
            "lng" : 103.7746200298927,
            "lat" : 1.299168529892722
          }
        },
        "location" : {
          "lng" : 103.7733811,
          "lat" : 1.2977203
        }
      },
      "place_id" : "ChIJ0c1lR_ga2jERfVFxggCR_Ic"
    } ],
    "status" : "OK"
  },
  "https://maps.googleapis.com/maps/api/place/findplacefromtext/json?location=.sg&inputtype=textquery&fields=name,place_id&input=NUS_Y&" : {
    "candidates" : [ ],
    "status" : "ZERO_RESULTS"
  },
  "https://maps.googleapis.com/maps/api/place/findplacefromtext/json?location=.sg&inputtype=textquery&fields=name,place_id&input=NUS_GBT&" : {
    "candidates" : [ {
      "name" : "National University of Singapore",
      "place_id" : "ChIJ2QJCeFYa2jERa434wdYIjUg"
    } ],
    "status" : "OK"
  },
  "https://maps.googleapis.com/maps/api/place/findplacefromtext/json?location=.sg&inputtype=textquery&fields=name,place_id&input=S1A&" : {
    "error_message" : "You must use an API key to authenticate each request to Google Maps Platform APIs. For additional information, please refer to http://g.co/dev/maps-no-account",
    "candidates" : [ ],
    "status" : "REQUEST_DENIED"
  },
  "https://maps.googleapis.com/maps/api/place/findplacefromtext/json?location=.sg&inputtype=textquery&fields=name,place_id&input=NUS_RC4&" : {
    "candidates" : [ {
      "name" : "Residential College 4",
      "place_id" : "ChIJyfRWy4oa2jERKHO_rI7eurw"
    } ],
    "status" : "OK"
  },
  "https://maps.googleapis.com/maps/api/place/findplacefromtext/json?location=.sg&inputtype=textquery&fields=name,place_id&input=CELS&" : {
    "error_message" : "You must use an API key to authenticate each request to Google Maps Platform APIs. For additional information, please refer to http://g.co/dev/maps-no-account",
    "candidates" : [ ],
    "status" : "REQUEST_DENIED"
  },
  "https://maps.googleapis.com/maps/api/place/findplacefromtext/json?location=.sg&inputtype=textquery&fields=name,place_id&input=NUS_S5&" : {
    "candidates" : [ {
      "name" : "LT32 NUS",
      "place_id" : "ChIJd6fn-FYa2jER1eMe-wts2_E"
    } ],
    "status" : "OK"
  },
  "https://maps.googleapis.com/maps/api/place/findplacefromtext/json?location=.sg&inputtype=textquery&fields=name,place_id&input=SR&" : {
    "error_message" : "You must use an API key to authenticate each request to Google Maps Platform APIs. For additional information, please refer to http://g.co/dev/maps-no-account",
    "candidates" : [ ],
    "status" : "REQUEST_DENIED"
  },
  "https://maps.googleapis.com/maps/api/place/findplacefromtext/json?location=.sg&inputtype=textquery&fields=name,place_id&input=NUS_LT12&" : {
    "candidates" : [ {
      "name" : "NUS LT12",
      "place_id" : "ChIJ_xC4S2Mb2jERtq3C7HpIrCY"
    } ],
    "status" : "OK"
  },
  "https://maps.googleapis.com/maps/api/place/findplacefromtext/json?location=.sg&inputtype=textquery&fields=name,place_id,geometry&input=NUS_LT7A&" : {
    "candidates" : [ {
      "name" : "LT21",
      "geometry" : {
        "viewport" : {
          "southwest" : {
            "lng" : 103.7784904201073,
            "lat" : 1.294078520107278
          },
          "northeast" : {
            "lng" : 103.7811900798927,
            "lat" : 1.296778179892722
          }
        },
        "location" : {
          "lng" : 103.7796219,
          "lat" : 1.2953773
        }
      },
      "place_id" : "ChIJqxqtNfka2jERLnTm-1Ajycc"
    } ],
    "status" : "OK"
  },
  "https://maps.googleapis.com/maps/api/place/findplacefromtext/json?location=.sg&inputtype=textquery&fields=name,place_id&input=NUS_AS5&" : {
    "candidates" : [ {
      "name" : "LT29",
      "place_id" : "ChIJD8PBzVAa2jER4aeSkEGQwK0"
    } ],
    "status" : "OK"
  },
  "https://maps.googleapis.com/maps/api/place/findplacefromtext/json?location=.sg&inputtype=textquery&fields=name,place_id&input=NUS_MD4&" : {
    "candidates" : [ {
      "name" : "Department of Microbiology and Immunology",
      "place_id" : "ChIJT8PQL1Ea2jERN-TUfW6F1Bw"
    } ],
    "status" : "OK"
  },
  "https://maps.googleapis.com/maps/api/place/findplacefromtext/json?location=.sg&inputtype=textquery&fields=name,place_id,geometry&input=NUS_LT15&" : {
    "candidates" : [ {
      "name" : "LT15",
      "geometry" : {
        "viewport" : {
          "southwest" : {
            "lng" : 103.7720474701073,
            "lat" : 1.293921270107278
          },
          "northeast" : {
            "lng" : 103.7747471298927,
            "lat" : 1.296620929892722
          }
        },
        "location" : {
          "lng" : 103.7734457,
          "lat" : 1.2955498
        }
      },
      "place_id" : "ChIJdWF-ZWkb2jERUDZwn6itdNs"
    } ],
    "status" : "OK"
  },
  "https://maps.googleapis.com/maps/api/place/findplacefromtext/json?location=.sg&inputtype=textquery&fields=name,place_id&input=NUS_EW1&" : {
    "candidates" : [ {
      "name" : "Engineering EW1, NUS",
      "place_id" : "ChIJ74gxX_ca2jERSiGy2d3Fpik"
    } ],
    "status" : "OK"
  },
  "https://maps.googleapis.com/maps/api/place/findplacefromtext/json?location=.sg&inputtype=textquery&fields=name,place_id&input=S11&" : {
    "error_message" : "You must use an API key to authenticate each request to Google Maps Platform APIs. For additional information, please refer to http://g.co/dev/maps-no-account",
    "candidates" : [ ],
    "status" : "REQUEST_DENIED"
  },
  "https://maps.googleapis.com/maps/api/place/findplacefromtext/json?location=.sg&inputtype=textquery&fields=name,place_id&input=NUS_TH&" : {
    "candidates" : [ ],
    "status" : "ZERO_RESULTS"
  },
  "https://maps.googleapis.com/maps/api/place/findplacefromtext/json?location=.sg&inputtype=textquery&fields=name,place_id&input=TB&" : {
    "error_message" : "You must use an API key to authenticate each request to Google Maps Platform APIs. For additional information, please refer to http://g.co/dev/maps-no-account",
    "candidates" : [ ],
    "status" : "REQUEST_DENIED"
  },
  "https://maps.googleapis.com/maps/api/place/findplacefromtext/json?location=.sg&inputtype=textquery&fields=name,place_id&input=E4&" : {
    "error_message" : "You must use an API key to authenticate each request to Google Maps Platform APIs. For additional information, please refer to http://g.co/dev/maps-no-account",
    "candidates" : [ ],
    "status" : "REQUEST_DENIED"
  },
  "https://maps.googleapis.com/maps/api/place/findplacefromtext/json?location=.sg&inputtype=textquery&fields=name,place_id&input=E4A&" : {
    "error_message" : "You must use an API key to authenticate each request to Google Maps Platform APIs. For additional information, please refer to http://g.co/dev/maps-no-account",
    "candidates" : [ ],
    "status" : "REQUEST_DENIED"
  },
  "https://maps.googleapis.com/maps/api/place/findplacefromtext/json?location=.sg&inputtype=textquery&fields=name,place_id,geometry&input=NUS_AS3&" : {
    "candidates" : [ {
      "name" : "LT21",
      "geometry" : {
        "viewport" : {
          "southwest" : {
            "lng" : 103.7784904201073,
            "lat" : 1.294078520107278
          },
          "northeast" : {
            "lng" : 103.7811900798927,
            "lat" : 1.296778179892722
          }
        },
        "location" : {
          "lng" : 103.7796219,
          "lat" : 1.2953773
        }
      },
      "place_id" : "ChIJqxqtNfka2jERLnTm-1Ajycc"
    } ],
    "status" : "OK"
  },
  "https://maps.googleapis.com/maps/api/place/findplacefromtext/json?location=.sg&inputtype=textquery&fields=name,place_id&input=NUS_LT7&" : {
    "candidates" : [ {
      "name" : "LT7, NUS",
      "place_id" : "ChIJxfwSHv4b2jERuvPdNU7SbUw"
    } ],
    "status" : "OK"
  },
  "https://maps.googleapis.com/maps/api/place/findplacefromtext/json?location=.sg&inputtype=textquery&fields=name,place_id&input=NUS_YSTCM&" : {
    "candidates" : [ {
      "name" : "National University of Singapore",
      "place_id" : "ChIJ2QJCeFYa2jERa434wdYIjUg"
    } ],
    "status" : "OK"
  },
  "https://maps.googleapis.com/maps/api/place/findplacefromtext/json?location=.sg&inputtype=textquery&fields=name,place_id&input=LT33&" : {
    "error_message" : "You must use an API key to authenticate each request to Google Maps Platform APIs. For additional information, please refer to http://g.co/dev/maps-no-account",
    "candidates" : [ ],
    "status" : "REQUEST_DENIED"
  },
  "https://maps.googleapis.com/maps/api/place/findplacefromtext/json?location=.sg&inputtype=textquery&fields=name,place_id&input=LT21&" : {
    "error_message" : "You must use an API key to authenticate each request to Google Maps Platform APIs. For additional information, please refer to http://g.co/dev/maps-no-account",
    "candidates" : [ ],
    "status" : "REQUEST_DENIED"
  },
  "https://maps.googleapis.com/maps/api/place/findplacefromtext/json?location=.sg&inputtype=textquery&fields=name,place_id,geometry&input=NUS_WT&" : {
    "candidates" : [ {
      "name" : "National University of Singapore",
      "geometry" : {
        "viewport" : {
          "southwest" : {
            "lng" : 103.76256585,
            "lat" : 1.2871405
          },
          "northeast" : {
            "lng" : 103.79249765,
            "lat" : 1.3062541
          }
        },
        "location" : {
          "lng" : 103.7763939,
          "lat" : 1.2966426
        }
      },
      "place_id" : "ChIJ2QJCeFYa2jERa434wdYIjUg"
    } ],
    "status" : "OK"
  },
  "https://maps.googleapis.com/maps/api/place/findplacefromtext/json?location=.sg&inputtype=textquery&fields=name,place_id,geometry&input=NUS_LT4&" : {
    "candidates" : [ {
      "name" : "LT4",
      "geometry" : {
        "viewport" : {
          "southwest" : {
            "lng" : 103.7721366701073,
            "lat" : 1.296151470107278
          },
          "northeast" : {
            "lng" : 103.7748363298927,
            "lat" : 1.298851129892722
          }
        },
        "location" : {
          "lng" : 103.7734865,
          "lat" : 1.2975013
        }
      },
      "place_id" : "ChIJB9BKXvUb2jERh7f1jvKALDE"
    } ],
    "status" : "OK"
  },
  "https://maps.googleapis.com/maps/api/place/findplacefromtext/json?location=.sg&inputtype=textquery&fields=name,place_id,geometry&input=NUS_AKIMLA4&" : {
    "candidates" : [ ],
    "status" : "ZERO_RESULTS"
  },
  "https://maps.googleapis.com/maps/api/place/findplacefromtext/json?location=.sg&inputtype=textquery&fields=name,place_id&input=NUS_S6&" : {
    "candidates" : [ {
      "name" : "NUS S6",
      "place_id" : "ChIJkW5bqQAb2jER-KDdeQ3SNEk"
    }, {
      "name" : "Science Library",
      "place_id" : "ChIJFwAfuVYa2jER0h6yBOtStS8"
    } ],
    "status" : "OK"
  },
  "https://maps.googleapis.com/maps/api/place/findplacefromtext/json?location=.sg&inputtype=textquery&fields=name,place_id&input=ISS&" : {
    "error_message" : "You must use an API key to authenticate each request to Google Maps Platform APIs. For additional information, please refer to http://g.co/dev/maps-no-account",
    "candidates" : [ ],
    "status" : "REQUEST_DENIED"
  },
  "https://maps.googleapis.com/maps/api/place/findplacefromtext/json?location=.sg&inputtype=textquery&fields=name,place_id&input=MD9&" : {
    "error_message" : "You must use an API key to authenticate each request to Google Maps Platform APIs. For additional information, please refer to http://g.co/dev/maps-no-account",
    "candidates" : [ ],
    "status" : "REQUEST_DENIED"
  },
  "https://maps.googleapis.com/maps/api/place/findplacefromtext/json?location=.sg&inputtype=textquery&fields=name,place_id&input=LAW&" : {
    "error_message" : "You must use an API key to authenticate each request to Google Maps Platform APIs. For additional information, please refer to http://g.co/dev/maps-no-account",
    "candidates" : [ ],
    "status" : "REQUEST_DENIED"
  },
  "https://maps.googleapis.com/maps/api/place/findplacefromtext/json?location=.sg&inputtype=textquery&fields=name,place_id,geometry&input=NUS_MD1&" : {
    "candidates" : [ {
      "name" : "MD1 - Tahir Foundation Building",
      "geometry" : {
        "viewport" : {
          "southwest" : {
            "lng" : 103.7789979701073,
            "lat" : 1.294302870107278
          },
          "northeast" : {
            "lng" : 103.7816976298927,
            "lat" : 1.297002529892722
          }
        },
        "location" : {
          "lng" : 103.7804305,
          "lat" : 1.2955513
        }
      },
      "place_id" : "ChIJcZSxxVYa2jERLKUYt9o2AgE"
    }, {
      "name" : "National University of Singapore",
      "geometry" : {
        "viewport" : {
          "southwest" : {
            "lng" : 103.76256585,
            "lat" : 1.2871405
          },
          "northeast" : {
            "lng" : 103.79249765,
            "lat" : 1.3062541
          }
        },
        "location" : {
          "lng" : 103.7763939,
          "lat" : 1.2966426
        }
      },
      "place_id" : "ChIJ2QJCeFYa2jERa434wdYIjUg"
    } ],
    "status" : "OK"
  },
  "https://maps.googleapis.com/maps/api/place/findplacefromtext/json?location=.sg&inputtype=textquery&fields=name,place_id&input=NUS_LT13&" : {
    "candidates" : [ {
      "name" : "NUS LT13",
      "place_id" : "ChIJoViMIbYb2jERQbzhdcWZAc4"
    } ],
    "status" : "OK"
  },
  "https://maps.googleapis.com/maps/api/place/findplacefromtext/json?location=.sg&inputtype=textquery&fields=name,place_id&input=NUS_AS4&" : {
    "candidates" : [ {
      "name" : "NUS S17",
      "place_id" : "ChIJc9Y2SFca2jERUd33B_8nY6s"
    } ],
    "status" : "OK"
  },
  "https://maps.googleapis.com/maps/api/place/findplacefromtext/json?location=.sg&inputtype=textquery&fields=name,place_id,geometry&input=NUS_LT18&" : {
    "candidates" : [ {
      "name" : "NUS LT18",
      "geometry" : {
        "viewport" : {
          "southwest" : {
            "lng" : 103.7734875201073,
            "lat" : 1.292093320107278
          },
          "northeast" : {
            "lng" : 103.7761871798927,
            "lat" : 1.294792979892722
          }
        },
        "location" : {
          "lng" : 103.7745132,
          "lat" : 1.2935577
        }
      },
      "place_id" : "ChIJUUCd6iQb2jERwMPiZN49r24"
    } ],
    "status" : "OK"
  },
  "https://maps.googleapis.com/maps/api/place/findplacefromtext/json?location=.sg&inputtype=textquery&fields=name,place_id&input=NUS_S2&" : {
    "candidates" : [ {
      "name" : "LT32 NUS",
      "place_id" : "ChIJd6fn-FYa2jER1eMe-wts2_E"
    } ],
    "status" : "OK"
  },
  "https://maps.googleapis.com/maps/api/place/findplacefromtext/json?location=.sg&inputtype=textquery&fields=name,place_id&input=LT8&" : {
    "error_message" : "You must use an API key to authenticate each request to Google Maps Platform APIs. For additional information, please refer to http://g.co/dev/maps-no-account",
    "candidates" : [ ],
    "status" : "REQUEST_DENIED"
  },
  "https://maps.googleapis.com/maps/api/place/findplacefromtext/json?location=.sg&inputtype=textquery&fields=name,place_id&input=RMI&" : {
    "error_message" : "You must use an API key to authenticate each request to Google Maps Platform APIs. For additional information, please refer to http://g.co/dev/maps-no-account",
    "candidates" : [ ],
    "status" : "REQUEST_DENIED"
  },
  "https://maps.googleapis.com/maps/api/place/findplacefromtext/json?location=.sg&inputtype=textquery&fields=name,place_id&input=NUS_SDE1&" : {
    "candidates" : [ {
      "name" : "National University of Singapore",
      "place_id" : "ChIJ2QJCeFYa2jERa434wdYIjUg"
    }, {
      "name" : "NUS School of Design & Environment",
      "place_id" : "ChIJrY4IlPka2jERhqeUbnzFVKY"
    } ],
    "status" : "OK"
  },
  "https://maps.googleapis.com/maps/api/place/findplacefromtext/json?location=.sg&inputtype=textquery&fields=name,place_id&input=GBT&" : {
    "error_message" : "You must use an API key to authenticate each request to Google Maps Platform APIs. For additional information, please refer to http://g.co/dev/maps-no-account",
    "candidates" : [ ],
    "status" : "REQUEST_DENIED"
  },
  "https://maps.googleapis.com/maps/api/place/findplacefromtext/json?location=.sg&inputtype=textquery&fields=name,place_id,geometry&input=NUS_LT1&" : {
    "candidates" : [ {
      "name" : "LT1, NUS",
      "geometry" : {
        "viewport" : {
          "southwest" : {
            "lng" : 103.7696564701073,
            "lat" : 1.298021520107278
          },
          "northeast" : {
            "lng" : 103.7723561298927,
            "lat" : 1.300721179892722
          }
        },
        "location" : {
          "lng" : 103.7713285,
          "lat" : 1.299585
        }
      },
      "place_id" : "ChIJ0fcnb_ca2jER_YoyP7CAb7E"
    } ],
    "status" : "OK"
  },
  "https://maps.googleapis.com/maps/api/place/findplacefromtext/json?location=.sg&inputtype=textquery&fields=name,place_id,geometry&input=NUS_S8&" : {
    "candidates" : [ {
      "name" : "LT21",
      "geometry" : {
        "viewport" : {
          "southwest" : {
            "lng" : 103.7784904201073,
            "lat" : 1.294078520107278
          },
          "northeast" : {
            "lng" : 103.7811900798927,
            "lat" : 1.296778179892722
          }
        },
        "location" : {
          "lng" : 103.7796219,
          "lat" : 1.2953773
        }
      },
      "place_id" : "ChIJqxqtNfka2jERLnTm-1Ajycc"
    } ],
    "status" : "OK"
  },
  "https://maps.googleapis.com/maps/api/place/findplacefromtext/json?location=.sg&inputtype=textquery&fields=name,place_id&input=NUS_LT10&" : {
    "candidates" : [ {
      "name" : "National University of Singapore",
      "place_id" : "ChIJ2QJCeFYa2jERa434wdYIjUg"
    } ],
    "status" : "OK"
  },
  "https://maps.googleapis.com/maps/api/place/findplacefromtext/json?location=.sg&inputtype=textquery&fields=name,place_id&input=LT12&" : {
    "error_message" : "You must use an API key to authenticate each request to Google Maps Platform APIs. For additional information, please refer to http://g.co/dev/maps-no-account",
    "candidates" : [ ],
    "status" : "REQUEST_DENIED"
  },
  "https://maps.googleapis.com/maps/api/place/findplacefromtext/json?location=.sg&inputtype=textquery&fields=name,place_id&input=NUS_LT6&" : {
    "candidates" : [ {
      "name" : "LT6",
      "place_id" : "ChIJJSZ61vka2jERgnM3i4HsKaI"
    } ],
    "status" : "OK"
  },
  "https://maps.googleapis.com/maps/api/place/findplacefromtext/json?location=.sg&inputtype=textquery&fields=name,place_id&input=AS7&" : {
    "error_message" : "You must use an API key to authenticate each request to Google Maps Platform APIs. For additional information, please refer to http://g.co/dev/maps-no-account",
    "candidates" : [ ],
    "status" : "REQUEST_DENIED"
  },
  "https://maps.googleapis.com/maps/api/place/findplacefromtext/json?location=.sg&inputtype=textquery&fields=name,place_id&input=KRH&" : {
    "error_message" : "You must use an API key to authenticate each request to Google Maps Platform APIs. For additional information, please refer to http://g.co/dev/maps-no-account",
    "candidates" : [ ],
    "status" : "REQUEST_DENIED"
  },
  "https://maps.googleapis.com/maps/api/place/findplacefromtext/json?location=.sg&inputtype=textquery&fields=name,place_id&input=NUS_CELS&" : {
    "candidates" : [ {
      "name" : "Centre for Life Sciences",
      "place_id" : "ChIJJYWxr1Ya2jER24LeedSn0PQ"
    } ],
    "status" : "OK"
  },
  "https://maps.googleapis.com/maps/api/place/findplacefromtext/json?location=.sg&inputtype=textquery&fields=name,place_id&input=NUS_EH&" : {
    "candidates" : [ {
      "name" : "National University of Singapore",
      "place_id" : "ChIJ2QJCeFYa2jERa434wdYIjUg"
    }, {
      "name" : "Eusoff Hall",
      "place_id" : "ChIJ1Unfuv4a2jER8YrTbzR_LwU"
    } ],
    "status" : "OK"
  },
  "https://maps.googleapis.com/maps/api/place/findplacefromtext/json?location=.sg&inputtype=textquery&fields=name,place_id&input=NUS_NAK&" : {
    "candidates" : [ {
      "name" : "The Ngee Ann Kongsi Auditorium",
      "place_id" : "ChIJ_Wq1p_Ua2jERRbnxALRpu-0"
    } ],
    "status" : "OK"
  },
  "https://maps.googleapis.com/maps/api/place/findplacefromtext/json?location=.sg&inputtype=textquery&fields=name,place_id,geometry&input=NUS_E1A&" : {
    "candidates" : [ {
      "name" : "Nus Blk E1a #07-16 Singapore",
      "geometry" : {
        "viewport" : {
          "southwest" : {
            "lng" : 103.7694319201073,
            "lat" : 1.297764820107278
          },
          "northeast" : {
            "lng" : 103.7721315798927,
            "lat" : 1.300464479892722
          }
        },
        "location" : {
          "lng" : 103.770845,
          "lat" : 1.299144
        }
      },
      "place_id" : "ChIJdX9qxCYb2jERMo9YISDNBpY"
    } ],
    "status" : "OK"
  },
  "https://maps.googleapis.com/maps/api/place/findplacefromtext/json?location=.sg&inputtype=textquery&fields=name,place_id&input=NUS_LT34&" : {
    "candidates" : [ {
      "name" : "LT34",
      "place_id" : "ChIJP8M0tVAa2jER9ox-CN1aIi0"
    } ],
    "status" : "OK"
  },
  "https://maps.googleapis.com/maps/api/place/findplacefromtext/json?location=.sg&inputtype=textquery&fields=name,place_id&input=EH&" : {
    "error_message" : "You must use an API key to authenticate each request to Google Maps Platform APIs. For additional information, please refer to http://g.co/dev/maps-no-account",
    "candidates" : [ ],
    "status" : "REQUEST_DENIED"
  },
  "https://maps.googleapis.com/maps/api/place/findplacefromtext/json?location=.sg&inputtype=textquery&fields=name,place_id,geometry&input=NUS_S17&" : {
    "candidates" : [ {
      "name" : "NUS S17",
      "geometry" : {
        "viewport" : {
          "southwest" : {
            "lng" : 103.7791049201073,
            "lat" : 1.296394520107278
          },
          "northeast" : {
            "lng" : 103.7818045798927,
            "lat" : 1.299094179892722
          }
        },
        "location" : {
          "lng" : 103.7804811,
          "lat" : 1.2976883
        }
      },
      "place_id" : "ChIJc9Y2SFca2jERUd33B_8nY6s"
    } ],
    "status" : "OK"
  },
  "https://maps.googleapis.com/maps/api/place/findplacefromtext/json?location=.sg&inputtype=textquery&fields=name,place_id&input=SDE1&" : {
    "error_message" : "You must use an API key to authenticate each request to Google Maps Platform APIs. For additional information, please refer to http://g.co/dev/maps-no-account",
    "candidates" : [ ],
    "status" : "REQUEST_DENIED"
  },
  "https://maps.googleapis.com/maps/api/place/findplacefromtext/json?location=.sg&inputtype=textquery&fields=name,place_id&input=NUS_AS3&" : {
    "candidates" : [ {
      "name" : "National University of Singapore",
      "place_id" : "ChIJ2QJCeFYa2jERa434wdYIjUg"
    } ],
    "status" : "OK"
  },
  "https://maps.googleapis.com/maps/api/place/findplacefromtext/json?location=.sg&inputtype=textquery&fields=name,place_id,geometry&input=NUS_AKI5B&" : {
    "candidates" : [ ],
    "status" : "ZERO_RESULTS"
  },
  "https://maps.googleapis.com/maps/api/place/findplacefromtext/json?location=.sg&inputtype=textquery&fields=name,place_id,geometry&input=NUS_LT29&" : {
    "candidates" : [ {
      "name" : "LT29",
      "geometry" : {
        "viewport" : {
          "southwest" : {
            "lng" : 103.7800380701073,
            "lat" : 1.295753570107278
          },
          "northeast" : {
            "lng" : 103.7827377298927,
            "lat" : 1.298453229892722
          }
        },
        "location" : {
          "lng" : 103.7813455,
          "lat" : 1.2971181
        }
      },
      "place_id" : "ChIJD8PBzVAa2jER4aeSkEGQwK0"
    } ],
    "status" : "OK"
  },
  "https://maps.googleapis.com/maps/api/place/findplacefromtext/json?location=.sg&inputtype=textquery&fields=name,place_id&input=NUS_CELC&" : {
    "candidates" : [ {
      "name" : "CELC",
      "place_id" : "ChIJDb-5pPka2jERKqyo5otS_Dc"
    }, {
      "name" : "National University of Singapore",
      "place_id" : "ChIJ2QJCeFYa2jERa434wdYIjUg"
    } ],
    "status" : "OK"
  },
  "https://maps.googleapis.com/maps/api/place/findplacefromtext/json?location=.sg&inputtype=textquery&fields=name,place_id&input=LT9&" : {
    "error_message" : "You must use an API key to authenticate each request to Google Maps Platform APIs. For additional information, please refer to http://g.co/dev/maps-no-account",
    "candidates" : [ ],
    "status" : "REQUEST_DENIED"
  },
  "https://maps.googleapis.com/maps/api/place/findplacefromtext/json?location=.sg&inputtype=textquery&fields=name,place_id,geometry&input=NUS_LT17&" : {
    "candidates" : [ {
      "name" : "NUS LT17",
      "geometry" : {
        "viewport" : {
          "southwest" : {
            "lng" : 103.7725399201073,
            "lat" : 1.292192720107278
          },
          "northeast" : {
            "lng" : 103.7752395798927,
            "lat" : 1.294892379892722
          }
        },
        "location" : {
          "lng" : 103.773989,
          "lat" : 1.2935909
        }
      },
      "place_id" : "ChIJBeHqfnAb2jERL1OoMUzA7yE"
    } ],
    "status" : "OK"
  },
  "https://maps.googleapis.com/maps/api/place/findplacefromtext/json?location=.sg&inputtype=textquery&fields=name,place_id&input=NUS_UT22&" : {
    "candidates" : [ {
      "name" : "National University of Singapore",
      "place_id" : "ChIJ2QJCeFYa2jERa434wdYIjUg"
    } ],
    "status" : "OK"
  },
  "https://maps.googleapis.com/maps/api/place/findplacefromtext/json?location=.sg&inputtype=textquery&fields=name,place_id&input=SDE&" : {
    "error_message" : "You must use an API key to authenticate each request to Google Maps Platform APIs. For additional information, please refer to http://g.co/dev/maps-no-account",
    "candidates" : [ ],
    "status" : "REQUEST_DENIED"
  },
  "https://maps.googleapis.com/maps/api/place/findplacefromtext/json?location=.sg&inputtype=textquery&fields=name,place_id,geometry&input=NUS_LT2&" : {
    "candidates" : [ {
      "name" : "LT21",
      "geometry" : {
        "viewport" : {
          "southwest" : {
            "lng" : 103.7784904201073,
            "lat" : 1.294078520107278
          },
          "northeast" : {
            "lng" : 103.7811900798927,
            "lat" : 1.296778179892722
          }
        },
        "location" : {
          "lng" : 103.7796219,
          "lat" : 1.2953773
        }
      },
      "place_id" : "ChIJqxqtNfka2jERLnTm-1Ajycc"
    } ],
    "status" : "OK"
  },
  "https://maps.googleapis.com/maps/api/place/findplacefromtext/json?location=.sg&inputtype=textquery&fields=name,place_id&input=NUS_LT4&" : {
    "candidates" : [ {
      "name" : "LT4",
      "place_id" : "ChIJB9BKXvUb2jERh7f1jvKALDE"
    } ],
    "status" : "OK"
  },
  "https://maps.googleapis.com/maps/api/place/findplacefromtext/json?location=.sg&inputtype=textquery&fields=name,place_id&input=NUS_jcdhsajkfebadbs&" : {
    "candidates" : [ ],
    "status" : "ZERO_RESULTS"
  },
  "https://maps.googleapis.com/maps/api/place/findplacefromtext/json?location=.sg&inputtype=textquery&fields=name,place_id,geometry&input=NUS_AS1&" : {
    "candidates" : [ {
      "name" : "LT21",
      "geometry" : {
        "viewport" : {
          "southwest" : {
            "lng" : 103.7784904201073,
            "lat" : 1.294078520107278
          },
          "northeast" : {
            "lng" : 103.7811900798927,
            "lat" : 1.296778179892722
          }
        },
        "location" : {
          "lng" : 103.7796219,
          "lat" : 1.2953773
        }
      },
      "place_id" : "ChIJqxqtNfka2jERLnTm-1Ajycc"
    } ],
    "status" : "OK"
  },
  "https://maps.googleapis.com/maps/api/place/findplacefromtext/json?location=.sg&inputtype=textquery&fields=name,place_id&input=CHPC&" : {
    "error_message" : "You must use an API key to authenticate each request to Google Maps Platform APIs. For additional information, please refer to http://g.co/dev/maps-no-account",
    "candidates" : [ ],
    "status" : "REQUEST_DENIED"
  },
  "https://maps.googleapis.com/maps/api/place/findplacefromtext/json?location=.sg&inputtype=textquery&fields=name,place_id&input=NUS_LT11&" : {
    "candidates" : [ {
      "name" : "NUS AS7 Shaw Foundation Building",
      "place_id" : "ChIJ8Yh3Nvka2jERWw7qp5RkdZE"
    }, {
      "name" : "National University of Singapore",
      "place_id" : "ChIJ2QJCeFYa2jERa434wdYIjUg"
    } ],
    "status" : "OK"
  },
  "https://maps.googleapis.com/maps/api/place/findplacefromtext/json?location=.sg&inputtype=textquery&fields=name,place_id&input=NUS_AKI5B&" : {
    "candidates" : [ ],
    "status" : "ZERO_RESULTS"
  },
  "https://maps.googleapis.com/maps/api/place/findplacefromtext/json?location=.sg&inputtype=textquery&fields=name,place_id&input=LT11&" : {
    "error_message" : "You must use an API key to authenticate each request to Google Maps Platform APIs. For additional information, please refer to http://g.co/dev/maps-no-account",
    "candidates" : [ ],
    "status" : "REQUEST_DENIED"
  },
  "https://maps.googleapis.com/maps/api/place/findplacefromtext/json?location=.sg&inputtype=textquery&fields=name,place_id&input=LKY&" : {
    "error_message" : "You must use an API key to authenticate each request to Google Maps Platform APIs. For additional information, please refer to http://g.co/dev/maps-no-account",
    "candidates" : [ ],
    "status" : "REQUEST_DENIED"
  },
  "https://maps.googleapis.com/maps/api/place/findplacefromtext/json?location=.sg&inputtype=textquery&fields=name,place_id&input=AS8&" : {
    "error_message" : "You must use an API key to authenticate each request to Google Maps Platform APIs. For additional information, please refer to http://g.co/dev/maps-no-account",
    "candidates" : [ ],
    "status" : "REQUEST_DENIED"
  },
  "https://maps.googleapis.com/maps/api/place/findplacefromtext/json?location=.sg&inputtype=textquery&fields=name,place_id&input=MD7&" : {
    "error_message" : "You must use an API key to authenticate each request to Google Maps Platform APIs. For additional information, please refer to http://g.co/dev/maps-no-account",
    "candidates" : [ ],
    "status" : "REQUEST_DENIED"
  },
  "https://maps.googleapis.com/maps/api/place/findplacefromtext/json?location=.sg&inputtype=textquery&fields=name,place_id&input=AKIMLA4&" : {
    "error_message" : "You must use an API key to authenticate each request to Google Maps Platform APIs. For additional information, please refer to http://g.co/dev/maps-no-account",
    "candidates" : [ ],
    "status" : "REQUEST_DENIED"
  },
  "https://maps.googleapis.com/maps/api/place/findplacefromtext/json?location=.sg&inputtype=textquery&fields=name,place_id&input=NUS_S4&" : {
    "candidates" : [ {
      "name" : "NUS Department of Pharmacy",
      "place_id" : "ChIJVSYW7lYa2jERabid659SkTc"
    } ],
    "status" : "OK"
  },
  "https://maps.googleapis.com/maps/api/place/findplacefromtext/json?location=.sg&inputtype=textquery&fields=name,place_id&input=S2&" : {
    "error_message" : "You must use an API key to authenticate each request to Google Maps Platform APIs. For additional information, please refer to http://g.co/dev/maps-no-account",
    "candidates" : [ ],
    "status" : "REQUEST_DENIED"
  },
  "https://maps.googleapis.com/maps/api/place/findplacefromtext/json?location=.sg&inputtype=textquery&fields=name,place_id,geometry&input=NUS_ERC&" : {
    "candidates" : [ {
      "name" : "University Town, NUS",
      "geometry" : {
        "viewport" : {
          "southwest" : {
            "lng" : 103.7714854701073,
            "lat" : 1.304208820107278
          },
          "northeast" : {
            "lng" : 103.7741851298927,
            "lat" : 1.306908479892722
          }
        },
        "location" : {
          "lng" : 103.7730596,
          "lat" : 1.3054859
        }
      },
      "place_id" : "ChIJF__3dfUa2jERyEFGvbTUVhA"
    } ],
    "status" : "OK"
  },
  "https://maps.googleapis.com/maps/api/place/findplacefromtext/json?location=.sg&inputtype=textquery&fields=name,place_id,geometry&input=NUS_RH&" : {
    "candidates" : [ {
      "name" : "National University of Singapore",
      "geometry" : {
        "viewport" : {
          "southwest" : {
            "lng" : 103.76256585,
            "lat" : 1.2871405
          },
          "northeast" : {
            "lng" : 103.79249765,
            "lat" : 1.3062541
          }
        },
        "location" : {
          "lng" : 103.7763939,
          "lat" : 1.2966426
        }
      },
      "place_id" : "ChIJ2QJCeFYa2jERa434wdYIjUg"
    }, {
      "name" : "Raffles Hall",
      "geometry" : {
        "viewport" : {
          "southwest" : {
            "lng" : 103.7727100201073,
            "lat" : 1.298769970107278
          },
          "northeast" : {
            "lng" : 103.7754096798927,
            "lat" : 1.301469629892722
          }
        },
        "location" : {
          "lng" : 103.7739612,
          "lat" : 1.3000462
        }
      },
      "place_id" : "ChIJSZTxeFEb2jERJ3Ptr8SSJdw"
    } ],
    "status" : "OK"
  },
  "https://maps.googleapis.com/maps/api/place/findplacefromtext/json?location=.sg&inputtype=textquery&fields=name,place_id&input=NUS_LKY_EE_CSU&" : {
    "candidates" : [ ],
    "status" : "ZERO_RESULTS"
  },
  "https://maps.googleapis.com/maps/api/place/findplacefromtext/json?location=.sg&inputtype=textquery&fields=name,place_id,geometry&input=NUS_AS6&" : {
    "candidates" : [ {
      "name" : "NUS AS6",
      "geometry" : {
        "viewport" : {
          "southwest" : {
            "lng" : 103.7718761201073,
            "lat" : 1.293911970107278
          },
          "northeast" : {
            "lng" : 103.7745757798927,
            "lat" : 1.296611629892722
          }
        },
        "location" : {
          "lng" : 103.7732198,
          "lat" : 1.2955162
        }
      },
      "place_id" : "ChIJAYP_DPkb2jERk5ZwcTDkwG0"
    } ],
    "status" : "OK"
  },
  "https://maps.googleapis.com/maps/api/place/findplacefromtext/json?location=.sg&inputtype=textquery&fields=name,place_id,geometry&input=NUS_CFG&" : {
    "candidates" : [ {
      "name" : "Yusof Ishak House",
      "geometry" : {
        "viewport" : {
          "southwest" : {
            "lng" : 103.7734251201073,
            "lat" : 1.297415420107278
          },
          "northeast" : {
            "lng" : 103.7761247798927,
            "lat" : 1.300115079892722
          }
        },
        "location" : {
          "lng" : 103.7748267,
          "lat" : 1.2985121
        }
      },
      "place_id" : "ChIJcWXf-_ca2jERnQ81RhxHf5o"
    }, {
      "name" : "Multipurpose Sports Hall 1",
      "geometry" : {
        "viewport" : {
          "southwest" : {
            "lng" : 103.7744692701073,
            "lat" : 1.299280370107278
          },
          "northeast" : {
            "lng" : 103.7771689298927,
            "lat" : 1.301980029892722
          }
        },
        "location" : {
          "lng" : 103.7760463,
          "lat" : 1.3007654
        }
      },
      "place_id" : "ChIJqw8l7lYa2jERGbuoQJFJByY"
    } ],
    "status" : "OK"
  },
  "https://maps.googleapis.com/maps/api/place/findplacefromtext/json?location=.sg&inputtype=textquery&fields=name,place_id&input=NUS_KEVII&" : {
    "candidates" : [ {
      "name" : "King Edward VII Hall",
      "place_id" : "ChIJRdd4d1Qa2jER8Jm2S_sC99o"
    }, {
      "name" : "National University of Singapore",
      "place_id" : "ChIJ2QJCeFYa2jERa434wdYIjUg"
    } ],
    "status" : "OK"
  },
  "https://maps.googleapis.com/maps/api/place/findplacefromtext/json?location=.sg&inputtype=textquery&fields=name,place_id,geometry&input=NUS_EW2&" : {
    "candidates" : [ {
      "name" : "NUS Engineering Workshop EW2/WS2",
      "geometry" : {
        "viewport" : {
          "southwest" : {
            "lng" : 103.7710292701073,
            "lat" : 1.297743920107278
          },
          "northeast" : {
            "lng" : 103.7737289298927,
            "lat" : 1.300443579892722
          }
        },
        "location" : {
          "lng" : 103.7725358,
          "lat" : 1.2991483
        }
      },
      "place_id" : "ChIJaVUqgvca2jERlWU6Yn95-Po"
    } ],
    "status" : "OK"
  },
  "https://maps.googleapis.com/maps/api/place/findplacefromtext/json?location=.sg&inputtype=textquery&fields=name,place_id,geometry&input=NUS_CHPC&" : {
    "candidates" : [ {
      "name" : "Clinical and Health Psychology Clinic (CHPC)",
      "geometry" : {
        "viewport" : {
          "southwest" : {
            "lng" : 103.7750011701073,
            "lat" : 1.297615420107278
          },
          "northeast" : {
            "lng" : 103.7777008298927,
            "lat" : 1.300315079892722
          }
        },
        "location" : {
          "lng" : 103.7764122,
          "lat" : 1.2991161
        }
      },
      "place_id" : "ChIJU1YXHFga2jERe-ShZMD78oU"
    }, {
      "name" : "National University of Singapore",
      "geometry" : {
        "viewport" : {
          "southwest" : {
            "lng" : 103.76256585,
            "lat" : 1.2871405
          },
          "northeast" : {
            "lng" : 103.79249765,
            "lat" : 1.3062541
          }
        },
        "location" : {
          "lng" : 103.7763939,
          "lat" : 1.2966426
        }
      },
      "place_id" : "ChIJ2QJCeFYa2jERa434wdYIjUg"
    } ],
    "status" : "OK"
  },
  "https://maps.googleapis.com/maps/api/place/findplacefromtext/json?location=.sg&inputtype=textquery&fields=name,place_id&input=NUS_LAW&" : {
    "candidates" : [ {
      "name" : "National University of Singapore Faculty of Law",
      "place_id" : "ChIJfyddcgMa2jER6C0WKzLdP6w"
    } ],
    "status" : "OK"
  },
  "https://maps.googleapis.com/maps/api/place/findplacefromtext/json?location=.sg&inputtype=textquery&fields=name,place_id&input=NUS_MD9&" : {
    "candidates" : [ {
      "name" : "Department of Physiology | YLLSOM | NUS",
      "place_id" : "ChIJJVKa1FAa2jERN6Ja2kg-1IA"
    } ],
    "status" : "OK"
  },
  "https://maps.googleapis.com/maps/api/place/findplacefromtext/json?location=.sg&inputtype=textquery&fields=name,place_id&input=NUS_S12&" : {
    "candidates" : [ {
      "name" : "S12",
      "place_id" : "ChIJQwi2BFca2jERjH7cWNPP2P8"
    } ],
    "status" : "OK"
  },
  "https://maps.googleapis.com/maps/api/place/findplacefromtext/json?location=.sg&inputtype=textquery&fields=name,place_id&input=E1&" : {
    "error_message" : "You must use an API key to authenticate each request to Google Maps Platform APIs. For additional information, please refer to http://g.co/dev/maps-no-account",
    "candidates" : [ ],
    "status" : "REQUEST_DENIED"
  },
  "https://maps.googleapis.com/maps/api/place/findplacefromtext/json?location=.sg&inputtype=textquery&fields=name,place_id,geometry&input=NUS_RC4&" : {
    "candidates" : [ {
      "name" : "Residential College 4",
      "geometry" : {
        "viewport" : {
          "southwest" : {
            "lng" : 103.7721423701073,
            "lat" : 1.306855920107278
          },
          "northeast" : {
            "lng" : 103.7748420298927,
            "lat" : 1.309555579892722
          }
        },
        "location" : {
          "lng" : 103.7734074,
          "lat" : 1.3082439
        }
      },
      "place_id" : "ChIJyfRWy4oa2jERKHO_rI7eurw"
    } ],
    "status" : "OK"
  },
  "https://maps.googleapis.com/maps/api/place/findplacefromtext/json?location=.sg&inputtype=textquery&fields=name,place_id&input=NUS_USP&" : {
    "candidates" : [ {
      "name" : "University Scholars Programme, National University of Singapore",
      "place_id" : "ChIJhfsMrVca2jER_qYWR23L00A"
    }, {
      "name" : "National University of Singapore",
      "place_id" : "ChIJ2QJCeFYa2jERa434wdYIjUg"
    } ],
    "status" : "OK"
  },
  "https://maps.googleapis.com/maps/api/place/findplacefromtext/json?location=.sg&inputtype=textquery&fields=name,place_id&input=S14&" : {
    "error_message" : "You must use an API key to authenticate each request to Google Maps Platform APIs. For additional information, please refer to http://g.co/dev/maps-no-account",
    "candidates" : [ ],
    "status" : "REQUEST_DENIED"
  },
  "https://maps.googleapis.com/maps/api/place/findplacefromtext/json?location=.sg&inputtype=textquery&fields=name,place_id&input=NUS_ISS&" : {
    "candidates" : [ {
      "name" : "NUS Institute of Systems Science",
      "place_id" : "ChIJ2QJCeFYa2jEREtrDRjksFsM"
    }, {
      "name" : "NUS-ISS",
      "place_id" : "ChIJwZ7RmFUa2jER1yVtJXlcF6k"
    } ],
    "status" : "OK"
  },
  "https://maps.googleapis.com/maps/api/place/findplacefromtext/json?location=.sg&inputtype=textquery&fields=name,place_id,geometry&input=NUS_S6&" : {
    "candidates" : [ {
      "name" : "NUS S6",
      "geometry" : {
        "viewport" : {
          "southwest" : {
            "lng" : 103.7788350701073,
            "lat" : 1.293958170107278
          },
          "northeast" : {
            "lng" : 103.7815347298927,
            "lat" : 1.296657829892722
          }
        },
        "location" : {
          "lng" : 103.7803112,
          "lat" : 1.2951331
        }
      },
      "place_id" : "ChIJkW5bqQAb2jER-KDdeQ3SNEk"
    }, {
      "name" : "Science Library",
      "geometry" : {
        "viewport" : {
          "southwest" : {
            "lng" : 103.7786845201073,
            "lat" : 1.293958820107278
          },
          "northeast" : {
            "lng" : 103.7813841798927,
            "lat" : 1.296658479892722
          }
        },
        "location" : {
          "lng" : 103.780073,
          "lat" : 1.2951379
        }
      },
      "place_id" : "ChIJFwAfuVYa2jER0h6yBOtStS8"
    } ],
    "status" : "OK"
  },
  "https://maps.googleapis.com/maps/api/place/findplacefromtext/json?location=.sg&inputtype=textquery&fields=name,place_id&input=LT14&" : {
    "error_message" : "You must use an API key to authenticate each request to Google Maps Platform APIs. For additional information, please refer to http://g.co/dev/maps-no-account",
    "candidates" : [ ],
    "status" : "REQUEST_DENIED"
  },
  "https://maps.googleapis.com/maps/api/place/findplacefromtext/json?location=.sg&inputtype=textquery&fields=name,place_id,geometry&input=NUS_LT7&" : {
    "candidates" : [ {
      "name" : "LT7, NUS",
      "geometry" : {
        "viewport" : {
          "southwest" : {
            "lng" : 103.7697881201073,
            "lat" : 1.299018270107278
          },
          "northeast" : {
            "lng" : 103.7724877798927,
            "lat" : 1.301717929892722
          }
        },
        "location" : {
          "lng" : 103.7710473,
          "lat" : 1.3001193
        }
      },
      "place_id" : "ChIJxfwSHv4b2jERuvPdNU7SbUw"
    } ],
    "status" : "OK"
  },
  "https://maps.googleapis.com/maps/api/place/findplacefromtext/json?location=.sg&inputtype=textquery&fields=name,place_id&input=NUS_RVR_MPR1&" : {
    "candidates" : [ ],
    "status" : "ZERO_RESULTS"
  },
  "https://maps.googleapis.com/maps/api/place/findplacefromtext/json?location=.sg&inputtype=textquery&fields=name,place_id&input=YI&" : {
    "error_message" : "You must use an API key to authenticate each request to Google Maps Platform APIs. For additional information, please refer to http://g.co/dev/maps-no-account",
    "candidates" : [ ],
    "status" : "REQUEST_DENIED"
  },
  "https://maps.googleapis.com/maps/api/place/findplacefromtext/json?location=.sg&inputtype=textquery&fields=name,place_id&input=TP&" : {
    "error_message" : "You must use an API key to authenticate each request to Google Maps Platform APIs. For additional information, please refer to http://g.co/dev/maps-no-account",
    "candidates" : [ ],
    "status" : "REQUEST_DENIED"
  },
  "https://maps.googleapis.com/maps/api/place/findplacefromtext/json?location=.sg&inputtype=textquery&fields=name,place_id&input=NUS_LT28&" : {
    "candidates" : [ {
      "name" : "NUS LT28",
      "place_id" : "ChIJN16IDygb2jEROR8LWE4pRss"
    } ],
    "status" : "OK"
  },
  "https://maps.googleapis.com/maps/api/place/findplacefromtext/json?location=.sg&inputtype=textquery&fields=name,place_id&input=COM2&" : {
    "error_message" : "You must use an API key to authenticate each request to Google Maps Platform APIs. For additional information, please refer to http://g.co/dev/maps-no-account",
    "candidates" : [ ],
    "status" : "REQUEST_DENIED"
  },
  "https://maps.googleapis.com/maps/api/place/findplacefromtext/json?location=.sg&inputtype=textquery&fields=name,place_id&input=NUS_LT16&" : {
    "candidates" : [ {
      "name" : "NUS LT16",
      "place_id" : "ChIJ_6V-wnYb2jERnyniSN0LAV0"
    } ],
    "status" : "OK"
  },
  "https://maps.googleapis.com/maps/api/place/findplacefromtext/json?location=.sg&inputtype=textquery&fields=name,place_id&input=NUS_LKY_SR2&" : {
    "candidates" : [ ],
    "status" : "ZERO_RESULTS"
  },
  "https://maps.googleapis.com/maps/api/place/findplacefromtext/json?location=.sg&inputtype=textquery&fields=name,place_id&input=CQT&" : {
    "error_message" : "You must use an API key to authenticate each request to Google Maps Platform APIs. For additional information, please refer to http://g.co/dev/maps-no-account",
    "candidates" : [ ],
    "status" : "REQUEST_DENIED"
  },
  "https://maps.googleapis.com/maps/api/place/findplacefromtext/json?location=.sg&inputtype=textquery&fields=name,place_id&input=LT26&" : {
    "error_message" : "You must use an API key to authenticate each request to Google Maps Platform APIs. For additional information, please refer to http://g.co/dev/maps-no-account",
    "candidates" : [ ],
    "status" : "REQUEST_DENIED"
  },
  "https://maps.googleapis.com/maps/api/place/findplacefromtext/json?location=.sg&inputtype=textquery&fields=name,place_id,geometry&input=NUS_YSTCM&" : {
    "candidates" : [ {
      "name" : "National University of Singapore",
      "geometry" : {
        "viewport" : {
          "southwest" : {
            "lng" : 103.76256585,
            "lat" : 1.2871405
          },
          "northeast" : {
            "lng" : 103.79249765,
            "lat" : 1.3062541
          }
        },
        "location" : {
          "lng" : 103.7763939,
          "lat" : 1.2966426
        }
      },
      "place_id" : "ChIJ2QJCeFYa2jERa434wdYIjUg"
    } ],
    "status" : "OK"
  },
  "https://maps.googleapis.com/maps/api/place/findplacefromtext/json?location=.sg&inputtype=textquery&fields=name,place_id,geometry&input=NUS_LT19&" : {
    "candidates" : [ {
      "name" : "NUS LT19",
      "geometry" : {
        "viewport" : {
          "southwest" : {
            "lng" : 103.7727772201073,
            "lat" : 1.292199270107278
          },
          "northeast" : {
            "lng" : 103.7754768798927,
            "lat" : 1.294898929892722
          }
        },
        "location" : {
          "lng" : 103.7744207,
          "lat" : 1.2936921
        }
      },
      "place_id" : "ChIJH7nBTf8a2jERkRfKRBAFVRc"
    } ],
    "status" : "OK"
  },
  "https://maps.googleapis.com/maps/api/place/findplacefromtext/json?location=.sg&inputtype=textquery&fields=name,place_id,geometry&input=NUS_KRH&" : {
    "candidates" : [ {
      "name" : "Kent Ridge Hall",
      "geometry" : {
        "viewport" : {
          "southwest" : {
            "lng" : 103.7733985201073,
            "lat" : 1.290536720107278
          },
          "northeast" : {
            "lng" : 103.7760981798927,
            "lat" : 1.293236379892722
          }
        },
        "location" : {
          "lng" : 103.774691,
          "lat" : 1.2917482
        }
      },
      "place_id" : "ChIJVYXNhv8a2jEROiZWY3fkc4g"
    } ],
    "status" : "OK"
  },
  "https://maps.googleapis.com/maps/api/place/findplacefromtext/json?location=.sg&inputtype=textquery&fields=name,place_id,geometry&input=NUS_AS7&" : {
    "candidates" : [ {
      "name" : "NUS AS7 Shaw Foundation Building",
      "geometry" : {
        "viewport" : {
          "southwest" : {
            "lng" : 103.7696042701073,
            "lat" : 1.292858970107278
          },
          "northeast" : {
            "lng" : 103.7723039298927,
            "lat" : 1.295558629892722
          }
        },
        "location" : {
          "lng" : 103.7710034,
          "lat" : 1.2942381
        }
      },
      "place_id" : "ChIJ8Yh3Nvka2jERWw7qp5RkdZE"
    } ],
    "status" : "OK"
  },
  "https://maps.googleapis.com/maps/api/place/findplacefromtext/json?location=.sg&inputtype=textquery&fields=name,place_id&input=RVR&" : {
    "error_message" : "You must use an API key to authenticate each request to Google Maps Platform APIs. For additional information, please refer to http://g.co/dev/maps-no-account",
    "candidates" : [ ],
    "status" : "REQUEST_DENIED"
  },
  "https://maps.googleapis.com/maps/api/place/findplacefromtext/json?location=.sg&inputtype=textquery&fields=name,place_id,geometry&input=NUS_I3&" : {
    "candidates" : [ {
      "name" : "i3 Auditorium",
      "geometry" : {
        "viewport" : {
          "southwest" : {
            "lng" : 103.7743311701073,
            "lat" : 1.290949320107278
          },
          "northeast" : {
            "lng" : 103.7770308298927,
            "lat" : 1.293648979892722
          }
        },
        "location" : {
          "lng" : 103.7753953,
          "lat" : 1.2928825
        }
      },
      "place_id" : "ChIJtX3gi1Ua2jERefFjXXzP-xk"
    } ],
    "status" : "OK"
  },
  "https://maps.googleapis.com/maps/api/place/findplacefromtext/json?location=.sg&inputtype=textquery&fields=name,place_id&input=NUS_S11&" : {
    "candidates" : [ {
      "name" : "NUS S11",
      "place_id" : "ChIJMW2gnpUb2jERlUYTYSaawlc"
    }, {
      "name" : "LT32 NUS",
      "place_id" : "ChIJd6fn-FYa2jER1eMe-wts2_E"
    } ],
    "status" : "OK"
  },
  "https://maps.googleapis.com/maps/api/place/findplacefromtext/json?location=.sg&inputtype=textquery&fields=name,place_id&input=E2A&" : {
    "error_message" : "You must use an API key to authenticate each request to Google Maps Platform APIs. For additional information, please refer to http://g.co/dev/maps-no-account",
    "candidates" : [ ],
    "status" : "REQUEST_DENIED"
  },
  "https://maps.googleapis.com/maps/api/place/findplacefromtext/json?location=.sg&inputtype=textquery&fields=name,place_id,geometry&input=NUS_S7&" : {
    "candidates" : [ {
      "name" : "LT21",
      "geometry" : {
        "viewport" : {
          "southwest" : {
            "lng" : 103.7784904201073,
            "lat" : 1.294078520107278
          },
          "northeast" : {
            "lng" : 103.7811900798927,
            "lat" : 1.296778179892722
          }
        },
        "location" : {
          "lng" : 103.7796219,
          "lat" : 1.2953773
        }
      },
      "place_id" : "ChIJqxqtNfka2jERLnTm-1Ajycc"
    } ],
    "status" : "OK"
  },
  "https://maps.googleapis.com/maps/api/place/findplacefromtext/json?location=.sg&inputtype=textquery&fields=name,place_id&input=NUS_RH&" : {
    "candidates" : [ {
      "name" : "National University of Singapore",
      "place_id" : "ChIJ2QJCeFYa2jERa434wdYIjUg"
    }, {
      "name" : "Raffles Hall",
      "place_id" : "ChIJSZTxeFEb2jERJ3Ptr8SSJdw"
    } ],
    "status" : "OK"
  },
  "https://maps.googleapis.com/maps/api/place/findplacefromtext/json?location=.sg&inputtype=textquery&fields=name,place_id&input=NUS_E4A&" : {
    "candidates" : [ {
      "name" : "NUS S17",
      "place_id" : "ChIJc9Y2SFca2jERUd33B_8nY6s"
    } ],
    "status" : "OK"
  },